FID,Name,Lat,Lon,Zone,Surf_Spot,Wannasurf_,Wannasurf1,Quality,Frequency,Direction,Type,Experience,Surfline_n,Quality__0,Frequency_,Wannasur_1,Wannasur_2,Surfline_l,Surfline_1,Manually_a,Manually_1,SUM_10km,SUM_1km,sqtd_10km,sqtd_1km
0,Cardoso,-28.585450000000002,-48.798270000000002, , ,0.000000000000000,0.000000000000000,0.000000000000000,0, , , , ,0.000000000000000,0, , , , ,0.000000000000000,0.000000000000000,0.000000000000000,0.000000000000000,0.000000000000000,0.000000000000000
1,Ravena,-28.454780000000000,-48.751339999999999, , ,0.000000000000000,0.000000000000000,0.000000000000000,0, , , , ,0.000000000000000,0, , , , ,0.000000000000000,0.000000000000000,0.000000000000000,0.000000000000000,0.000000000000000,0.000000000000000
2,Praia da Vila Imbituba,-28.252472220000001,-48.661850000000001, , ,0.000000000000000,0.000000000000000,0.000000000000000,0, , , , ,0.000000000000000,0, , , , ,0.000000000000000,0.000000000000000,0.000000000000000,0.000000000000000,0.000000000000000,0.000000000000000
3,Praia do Porto Imbituba,-28.220199000000001,-48.663214000000004, , ,0.000000000000000,0.000000000000000,0.000000000000000,0, , , , ,0.000000000000000,0, , , , ,0.000000000000000,0.000000000000000,0.000000000000000,0.000000000000000,0.000000000000000,0.000000000000000
4,Ponta da Pinheira,-27.878140999999999,-48.576442000000000, , ,0.000000000000000,0.000000000000000,0.000000000000000,0, , , , ,0.000000000000000,0, , , , ,0.000000000000000,0.000000000000000,25301.605678600000829,0.000000000000000,16034.622383100000661,0.000000000000000
5,Mocambique,-27.518350000000002,-48.392183330000002, , ,0.000000000000000,0.000000000000000,0.000000000000000,0, , , , ,0.000000000000000,0, , , , ,0.000000000000000,0.000000000000000,17994.184125899999344,0.000000000000000,11592.467378600000302,0.000000000000000
6,Ponta das Canas,-27.394818999999998,-48.435709000000003, , ,0.000000000000000,0.000000000000000,0.000000000000000,0, , , , ,0.000000000000000,0, , , , ,0.000000000000000,0.000000000000000,13332.543264399999316,0.000000000000000,8592.064001079999798,0.000000000000000
7,Itagua&ccedil;u,-26.184728000000000,-48.526327999999999, , ,0.000000000000000,0.000000000000000,0.000000000000000,0, , , , ,0.000000000000000,0, , , , ,0.000000000000000,0.000000000000000,179450.892779999994673,0.000000000000000,120191.474784999998519,0.000000000000000
8,Caioba,-25.838000000000001,-48.534999999999997, , ,0.000000000000000,0.000000000000000,0.000000000000000,0, , , , ,0.000000000000000,0, , , , ,0.000000000000000,0.000000000000000,452319.531183000013698,0.000000000000000,318997.414815999974962,0.000000000000000
9,Ilha Comprida,-24.783999999999999,-47.594999999999999, , ,0.000000000000000,0.000000000000000,0.000000000000000,0, , , , ,0.000000000000000,0, , , , ,0.000000000000000,0.000000000000000,170109.182089000009000,0.000000000000000,118399.025750999993761,0.000000000000000
10,Iguape,-24.753211000000000,-47.542059000000002, , ,0.000000000000000,0.000000000000000,0.000000000000000,0, , , , ,0.000000000000000,0, , , , ,0.000000000000000,0.000000000000000,252001.905258000013418,0.000000000000000,174861.157406000012998,0.000000000000000
11,Peruibe,-24.324427000000000,-46.978886000000003, , ,0.000000000000000,0.000000000000000,0.000000000000000,0, , , , ,0.000000000000000,0, , , , ,0.000000000000000,0.000000000000000,65744.576347399997758,0.000000000000000,42687.554225899999437,0.000000000000000
12,Praia dos Pescadores,-24.194862000000001,-46.798881999999999, , ,0.000000000000000,0.000000000000000,0.000000000000000,0, , , , ,0.000000000000000,0, , , , ,0.000000000000000,0.000000000000000,142189.395483000000240,4630.607244490000085,97552.071763999992982,3117.302049639999950
13,Itanhaem,-24.151427000000002,-46.707858000000002, , ,0.000000000000000,0.000000000000000,0.000000000000000,0, , , , ,0.000000000000000,0, , , , ,0.000000000000000,0.000000000000000,13066.650075899999138,0.000000000000000,9118.108652110000548,0.000000000000000
14,Praia Grande,-24.028497000000002,-46.438310000000001, , ,0.000000000000000,0.000000000000000,0.000000000000000,0, , , , ,0.000000000000000,0, , , , ,0.000000000000000,0.000000000000000,561329.067032000049949,0.000000000000000,383895.745616999978665,0.000000000000000
15,Praia do Forte dos Andradas,-24.028369000000001,-46.288159000000000, , ,0.000000000000000,0.000000000000000,0.000000000000000,0, , , , ,0.000000000000000,0, , , , ,0.000000000000000,0.000000000000000,38820.363588300002448,0.000000000000000,24607.203184099998907,0.000000000000000
16,Praia do Forte dos Andradas,-24.025659999999998,-46.285460000000000, , ,0.000000000000000,0.000000000000000,0.000000000000000,0, , , , ,0.000000000000000,0, , , , ,0.000000000000000,0.000000000000000,45288.768522300000768,0.000000000000000,28464.864828099998704,0.000000000000000
17,Praia da Ponta Grossa,-24.024816000000001,-46.314497000000003, , ,0.000000000000000,0.000000000000000,0.000000000000000,0, , , , ,0.000000000000000,0, , , , ,0.000000000000000,0.000000000000000,33877.353202799997234,0.000000000000000,21645.766220099998463,0.000000000000000
18,Itaipu,-24.019545000000001,-46.386795999999997, , ,0.000000000000000,0.000000000000000,0.000000000000000,0, , , , ,0.000000000000000,0, , , , ,0.000000000000000,0.000000000000000,431793.382886999985203,0.000000000000000,295987.827870999986771,0.000000000000000
19,Guaiuba,-24.017081999999998,-46.295202000000003, , ,0.000000000000000,0.000000000000000,0.000000000000000,0, , , , ,0.000000000000000,0, , , , ,0.000000000000000,0.000000000000000,57739.856397600000491,0.000000000000000,36238.637136500001361,0.000000000000000
20,Santos,-24.015000000000001,-46.353999999999999, , ,0.000000000000000,0.000000000000000,0.000000000000000,0, , , , ,0.000000000000000,0, , , , ,0.000000000000000,0.000000000000000,156231.152723000006517,0.000000000000000,107137.774323999998160,0.000000000000000
21,Morro do Maluf,-23.997560000000000,-46.251593999999997, , ,0.000000000000000,0.000000000000000,0.000000000000000,0, , , , ,0.000000000000000,0, , , , ,0.000000000000000,0.000000000000000,395813.841615999990609,0.000000000000000,247104.644663000013679,0.000000000000000
22,Praia da Enseada,-23.990651000000000,-46.209406000000001, , ,0.000000000000000,0.000000000000000,0.000000000000000,0, , , , ,0.000000000000000,0, , , , ,0.000000000000000,0.000000000000000,347204.923389000003226,0.000000000000000,214860.053161999996519,0.000000000000000
23,Embare,-23.980865999999999,-46.317684000000000, , ,0.000000000000000,0.000000000000000,0.000000000000000,0, , , , ,0.000000000000000,0, , , , ,0.000000000000000,0.000000000000000,497646.938064999994822,0.000000000000000,317731.013302000006661,0.000000000000000
24,Gonzaga,-23.974027000000000,-46.330098000000000, , ,0.000000000000000,0.000000000000000,0.000000000000000,0, , , , ,0.000000000000000,0, , , , ,0.000000000000000,0.000000000000000,567646.606522000045516,0.000000000000000,366380.407368000014685,0.000000000000000
25,Pereque,-23.927582999999998,-46.178826000000001, , ,0.000000000000000,0.000000000000000,0.000000000000000,0, , , , ,0.000000000000000,0, , , , ,0.000000000000000,0.000000000000000,793425.832065999973565,0.000000000000000,493137.716697999974713,0.000000000000000
26,Praia Preta,-23.874700000000001,-46.138959000000000, , ,0.000000000000000,0.000000000000000,0.000000000000000,0, , , , ,0.000000000000000,0, , , , ,0.000000000000000,0.000000000000000,520644.699897999991663,0.000000000000000,328816.921478000003844,0.000000000000000
27,Praia da Bertioga,-23.846986000000001,-46.126967999999998, , ,0.000000000000000,0.000000000000000,0.000000000000000,0, , , , ,0.000000000000000,0, , , , ,0.000000000000000,0.000000000000000,384420.090821999998298,0.000000000000000,244961.492781000008108,0.000000000000000
28,Maresias,-23.793693260000001,-45.559764340000001, , ,0.000000000000000,0.000000000000000,0.000000000000000,0, , , , ,0.000000000000000,0, , , , ,0.000000000000000,0.000000000000000,0.000000000000000,0.000000000000000,0.000000000000000,0.000000000000000
29,Canto de Moreira,-23.793056000000000,-45.587394000000003, , ,0.000000000000000,0.000000000000000,0.000000000000000,0, , , , ,0.000000000000000,0, , , , ,0.000000000000000,0.000000000000000,0.000000000000000,0.000000000000000,0.000000000000000,0.000000000000000
30,Itaguere,-23.786995000000001,-45.971372000000002, , ,0.000000000000000,0.000000000000000,0.000000000000000,0, , , , ,0.000000000000000,0, , , , ,0.000000000000000,0.000000000000000,52233.382635100002517,0.000000000000000,36336.052679100001114,0.000000000000000
31,Boicucanga,-23.784431000000001,-45.631354999999999, , ,0.000000000000000,0.000000000000000,0.000000000000000,0, , , , ,0.000000000000000,0, , , , ,0.000000000000000,0.000000000000000,2872.282848360000116,0.000000000000000,2045.729526520000036,0.000000000000000
32,Praia de Baleia,-23.775839000000001,-45.683985999999997, , ,0.000000000000000,0.000000000000000,0.000000000000000,0, , , , ,0.000000000000000,0, , , , ,0.000000000000000,0.000000000000000,2872.282848360000116,2569.113130570000067,2045.729526520000036,1831.415010449999954
33,Barra do Sahy,-23.774384999999999,-45.697569999999999, , ,0.000000000000000,0.000000000000000,0.000000000000000,0, , , , ,0.000000000000000,0, , , , ,0.000000000000000,0.000000000000000,2872.282848360000116,2361.826730729999781,2045.729526520000036,1675.549886699999888
34,Praia Preta,-23.773009999999999,-45.715814999999999, , ,0.000000000000000,0.000000000000000,0.000000000000000,0, , , , ,0.000000000000000,0, , , , ,0.000000000000000,0.000000000000000,2872.282848360000116,0.000000000000000,2045.729526520000036,0.000000000000000
35,Bananas Point,-23.771605000000001,-45.706209999999999, , ,0.000000000000000,0.000000000000000,0.000000000000000,0, , , , ,0.000000000000000,0, , , , ,0.000000000000000,0.000000000000000,2872.282848360000116,0.000000000000000,2045.729526520000036,0.000000000000000
36,Praia do Juquei,-23.768115000000002,-45.745452999999998, , ,0.000000000000000,0.000000000000000,0.000000000000000,0, , , , ,0.000000000000000,0, , , , ,0.000000000000000,0.000000000000000,2872.282848360000116,0.000000000000000,2045.729526520000036,0.000000000000000
37,Barra do Una,-23.763818000000001,-45.762779999999999, , ,0.000000000000000,0.000000000000000,0.000000000000000,0, , , , ,0.000000000000000,0, , , , ,0.000000000000000,0.000000000000000,2872.282848360000116,0.000000000000000,2045.729526520000036,0.000000000000000
38,Praia da Boracéia,-23.758372999999999,-45.828777000000002, , ,0.000000000000000,0.000000000000000,0.000000000000000,0, , , , ,0.000000000000000,0, , , , ,0.000000000000000,0.000000000000000,84726.759082799995667,0.000000000000000,57455.774635299996589,0.000000000000000
39,Praia Dura,-23.496058000000001,-45.171014000000000, , ,0.000000000000000,0.000000000000000,0.000000000000000,0, , , , ,0.000000000000000,0, , , , ,0.000000000000000,0.000000000000000,0.000000000000000,0.000000000000000,0.000000000000000,0.000000000000000
40,Pereque-Acu,-23.424565000000001,-45.062697000000000, , ,0.000000000000000,0.000000000000000,0.000000000000000,0, , , , ,0.000000000000000,0, , , , ,0.000000000000000,0.000000000000000,0.000000000000000,0.000000000000000,0.000000000000000,0.000000000000000
41,Itamambuca,-23.406683000000001,-45.008741000000001, , ,0.000000000000000,0.000000000000000,0.000000000000000,0, , , , ,0.000000000000000,0, , , , ,0.000000000000000,0.000000000000000,0.000000000000000,0.000000000000000,0.000000000000000,0.000000000000000
42,Praia da Fazenda,-23.361352000000000,-44.859766000000000, , ,0.000000000000000,0.000000000000000,0.000000000000000,0, , , , ,0.000000000000000,0, , , , ,0.000000000000000,0.000000000000000,0.000000000000000,0.000000000000000,0.000000000000000,0.000000000000000
43,Aventureiro,-23.184405999999999,-44.315804000000000, , ,0.000000000000000,0.000000000000000,0.000000000000000,0, , , , ,0.000000000000000,0, , , , ,0.000000000000000,0.000000000000000,0.000000000000000,0.000000000000000,0.000000000000000,0.000000000000000
44,Praia do Leste,-23.179746000000002,-44.274093999999998, , ,0.000000000000000,0.000000000000000,0.000000000000000,0, , , , ,0.000000000000000,0, , , , ,0.000000000000000,0.000000000000000,0.000000000000000,0.000000000000000,0.000000000000000,0.000000000000000
45,Praia do Sul,-23.178656000000000,-44.296756999999999, , ,0.000000000000000,0.000000000000000,0.000000000000000,0, , , , ,0.000000000000000,0, , , , ,0.000000000000000,0.000000000000000,0.000000000000000,0.000000000000000,0.000000000000000,0.000000000000000
46,Praia do Meio,-23.066913000000000,-43.549809000000003, , ,0.000000000000000,0.000000000000000,0.000000000000000,0, , , , ,0.000000000000000,0, , , , ,0.000000000000000,0.000000000000000,581314.900327999959700,0.000000000000000,347968.841683999984525,0.000000000000000
47,Restinga a Marambaia,-23.061833000000000,-43.591673000000000, , ,0.000000000000000,0.000000000000000,0.000000000000000,0, , , , ,0.000000000000000,0, , , , ,0.000000000000000,0.000000000000000,668109.196364999981597,0.000000000000000,400144.683845999999903,0.000000000000000
48,Grumari,-23.050469000000000,-43.533907999999997, , ,0.000000000000000,0.000000000000000,0.000000000000000,0, , , , ,0.000000000000000,0, , , , ,0.000000000000000,0.000000000000000,567242.974289000034332,0.000000000000000,339785.923915999999736,0.000000000000000
49,Reserva,-23.022717000000000,-43.440916000000001, , ,0.000000000000000,0.000000000000000,0.000000000000000,0, , , , ,0.000000000000000,0, , , , ,0.000000000000000,0.000000000000000,0.000000000000000,0.000000000000000,0.000000000000000,0.000000000000000
50,Barra da Tijuca,-23.020340120000000,-43.372478489999999, , ,0.000000000000000,0.000000000000000,0.000000000000000,0, , , , ,0.000000000000000,0, , , , ,0.000000000000000,0.000000000000000,0.000000000000000,0.000000000000000,0.000000000000000,0.000000000000000
51,Barra da Tijuca,-23.014886109999999,-43.372222219999998, , ,0.000000000000000,0.000000000000000,0.000000000000000,0, , , , ,0.000000000000000,0, , , , ,0.000000000000000,0.000000000000000,0.000000000000000,0.000000000000000,0.000000000000000,0.000000000000000
52,Sao Conrado,-23.000617999999999,-43.264187000000000, , ,0.000000000000000,0.000000000000000,0.000000000000000,0, , , , ,0.000000000000000,0, , , , ,0.000000000000000,0.000000000000000,0.000000000000000,0.000000000000000,0.000000000000000,0.000000000000000
53,Bambui,-22.975255000000001,-42.916570000000000, , ,0.000000000000000,0.000000000000000,0.000000000000000,0, , , , ,0.000000000000000,0, , , , ,0.000000000000000,0.000000000000000,0.000000000000000,0.000000000000000,0.000000000000000,0.000000000000000
54,Itaipuacu,-22.971149000000000,-43.011260000000000, , ,0.000000000000000,0.000000000000000,0.000000000000000,0, , , , ,0.000000000000000,0, , , , ,0.000000000000000,0.000000000000000,0.000000000000000,0.000000000000000,0.000000000000000,0.000000000000000
55,Barra de Marica,-22.962100000000000,-42.809486999999997, , ,0.000000000000000,0.000000000000000,0.000000000000000,0, , , , ,0.000000000000000,0, , , , ,0.000000000000000,0.000000000000000,0.000000000000000,0.000000000000000,0.000000000000000,0.000000000000000
56,Camboinhas,-22.961998000000001,-43.059922999999998, , ,0.000000000000000,0.000000000000000,0.000000000000000,0, , , , ,0.000000000000000,0, , , , ,0.000000000000000,0.000000000000000,0.000000000000000,0.000000000000000,0.000000000000000,0.000000000000000
57,Pirantininga,-22.955044999999998,-43.088653999999998, , ,0.000000000000000,0.000000000000000,0.000000000000000,0, , , , ,0.000000000000000,0, , , , ,0.000000000000000,0.000000000000000,0.000000000000000,0.000000000000000,0.000000000000000,0.000000000000000
58,Jacone,-22.946556000000001,-42.679789000000000, , ,0.000000000000000,0.000000000000000,0.000000000000000,0, , , , ,0.000000000000000,0, , , , ,0.000000000000000,0.000000000000000,0.000000000000000,0.000000000000000,0.000000000000000,0.000000000000000
59,Figueira,-22.944991999999999,-42.188828000000001, , ,0.000000000000000,0.000000000000000,0.000000000000000,0, , , , ,0.000000000000000,0, , , , ,0.000000000000000,0.000000000000000,131.735664367999988,0.000000000000000,77.932556152299995,0.000000000000000
60,Praia do Fora,-22.944794000000002,-43.155304000000001, , ,0.000000000000000,0.000000000000000,0.000000000000000,0, , , , ,0.000000000000000,0, , , , ,0.000000000000000,0.000000000000000,0.000000000000000,0.000000000000000,0.000000000000000,0.000000000000000
61,Laje do Pao de Acucar,-22.938409000000000,-43.151797000000002, , ,0.000000000000000,0.000000000000000,0.000000000000000,0, , , , ,0.000000000000000,0, , , , ,0.000000000000000,0.000000000000000,0.000000000000000,0.000000000000000,0.000000000000000,0.000000000000000
62,Canal,-22.937418999999998,-42.487813000000003, , ,0.000000000000000,0.000000000000000,0.000000000000000,0, , , , ,0.000000000000000,0, , , , ,0.000000000000000,0.000000000000000,0.000000000000000,0.000000000000000,0.000000000000000,0.000000000000000
63,Praia Seca,-22.936126000000002,-42.361598000000001, , ,0.000000000000000,0.000000000000000,0.000000000000000,0, , , , ,0.000000000000000,0, , , , ,0.000000000000000,0.000000000000000,31.937734603900001,0.000000000000000,19.483137130700001,0.000000000000000
64,Caravelas,-22.814850000000000,-41.953901999999999, , ,0.000000000000000,0.000000000000000,0.000000000000000,0, , , , ,0.000000000000000,0, , , , ,0.000000000000000,0.000000000000000,0.000000000000000,0.000000000000000,0.000000000000000,0.000000000000000
65,Tucuns,-22.799863999999999,-41.929282000000001, , ,0.000000000000000,0.000000000000000,0.000000000000000,0, , , , ,0.000000000000000,0, , , , ,0.000000000000000,0.000000000000000,0.000000000000000,0.000000000000000,0.000000000000000,0.000000000000000
66,Praia Brava,-22.754252000000001,-41.872608999999997, , ,0.000000000000000,0.000000000000000,0.000000000000000,0, , , , ,0.000000000000000,0, , , , ,0.000000000000000,0.000000000000000,0.000000000000000,0.000000000000000,0.000000000000000,0.000000000000000
67,Marataizes,-21.044882999999999,-40.827455999999998, , ,0.000000000000000,0.000000000000000,0.000000000000000,0, , , , ,0.000000000000000,0, , , , ,0.000000000000000,0.000000000000000,40625.462858200000483,0.000000000000000,26224.303659400000470,0.000000000000000
68,Ponta do Ubu,-20.793246000000000,-40.579551000000002, , ,0.000000000000000,0.000000000000000,0.000000000000000,0, , , , ,0.000000000000000,0, , , , ,0.000000000000000,0.000000000000000,231139.487779999995837,0.000000000000000,136226.097425000014482,0.000000000000000
69,Ponta dos Castelhanos,-20.755085000000001,-40.560755000000000, , ,0.000000000000000,0.000000000000000,0.000000000000000,0, , , , ,0.000000000000000,0, , , , ,0.000000000000000,0.000000000000000,200635.737346999987494,0.000000000000000,121944.960384000005433,0.000000000000000
70,Maimba,-20.707021999999998,-40.514367999999997, , ,0.000000000000000,0.000000000000000,0.000000000000000,0, , , , ,0.000000000000000,0, , , , ,0.000000000000000,0.000000000000000,185531.819450000009965,0.000000000000000,112398.223301000005449,0.000000000000000
71,Praia do Morro,-20.659787999999999,-40.493842999999998, , ,0.000000000000000,0.000000000000000,0.000000000000000,0, , , , ,0.000000000000000,0, , , , ,0.000000000000000,0.000000000000000,216533.159025000000838,664.554407119999951,131082.552274999994552,409.145898819000024
72,Ponta de Bororo,-20.614518000000000,-40.415382000000001, , ,0.000000000000000,0.000000000000000,0.000000000000000,0, , , , ,0.000000000000000,0, , , , ,0.000000000000000,0.000000000000000,31386.975377999999182,0.000000000000000,18898.643495600001188,0.000000000000000
73,Tropical,-20.559543999999999,-40.391810000000000, , ,0.000000000000000,0.000000000000000,0.000000000000000,0, , , , ,0.000000000000000,0, , , , ,0.000000000000000,0.000000000000000,3266.160120009999901,0.000000000000000,2006.763154980000081,0.000000000000000
74,Dunas de Ule,-20.542100000000001,-40.379860999999998, , ,0.000000000000000,0.000000000000000,0.000000000000000,0, , , , ,0.000000000000000,0, , , , ,0.000000000000000,0.000000000000000,385.635803222999982,0.000000000000000,214.314521789999986,0.000000000000000
75,Guarapari - Ule,-20.541319000000001,-40.378385999999999, , ,0.000000000000000,0.000000000000000,0.000000000000000,0, , , , ,0.000000000000000,0, , , , ,0.000000000000000,0.000000000000000,385.635803222999982,0.000000000000000,214.314521789999986,0.000000000000000
76,Ponta da Fruta,-20.516836999999999,-40.358133000000002, , ,0.000000000000000,0.000000000000000,0.000000000000000,0, , , , ,0.000000000000000,0, , , , ,0.000000000000000,0.000000000000000,61.840126037600001,0.000000000000000,38.966278076199998,0.000000000000000
77,Coral Dois,-20.448948000000001,-40.330300000000001, , ,0.000000000000000,0.000000000000000,0.000000000000000,0, , , , ,0.000000000000000,0, , , , ,0.000000000000000,0.000000000000000,4009.572689059999902,0.000000000000000,2435.392292019999786,0.000000000000000
78,Ponta da Belina,-20.445827000000001,-40.329245000000000, , ,0.000000000000000,0.000000000000000,0.000000000000000,0, , , , ,0.000000000000000,0, , , , ,0.000000000000000,0.000000000000000,4009.572689059999902,0.000000000000000,2435.392292019999786,0.000000000000000
79,Coral Um,-20.437659000000000,-40.326006999999997, , ,0.000000000000000,0.000000000000000,0.000000000000000,0, , , , ,0.000000000000000,0, , , , ,0.000000000000000,0.000000000000000,4009.572689059999902,0.000000000000000,2435.392292019999786,0.000000000000000
80,"Barrao, Brazil",-20.427381000000000,-40.320982000000001, , ,0.000000000000000,0.000000000000000,0.000000000000000,0, , , , ,0.000000000000000,0, , , , ,0.000000000000000,0.000000000000000,4009.572689059999902,1751.638187410000000,2435.392292019999786,1071.572647089999919
81,Barrinha,-20.422540999999999,-40.321933999999999, , ,0.000000000000000,0.000000000000000,0.000000000000000,0, , , , ,0.000000000000000,0, , , , ,0.000000000000000,0.000000000000000,4224.746671679999963,3342.731449129999874,2571.774259570000140,2045.729549409999890
82,Praia de Camburi,-20.279677000000000,-40.248994000000003, , ,0.000000000000000,0.000000000000000,0.000000000000000,0, , , , ,0.000000000000000,0, , , , ,0.000000000000000,0.000000000000000,420340.445416999980807,0.000000000000000,256690.341802999988431,0.000000000000000
83,Velzyland,-20.244838999999999,-40.216205000000002, , ,0.000000000000000,0.000000000000000,0.000000000000000,0, , , , ,0.000000000000000,0, , , , ,0.000000000000000,0.000000000000000,133114.212300999992294,0.000000000000000,81829.178693800000474,0.000000000000000
84,Ponta da Cacao,-20.219573000000000,-40.196268000000003, , ,0.000000000000000,0.000000000000000,0.000000000000000,0, , , , ,0.000000000000000,0, , , , ,0.000000000000000,0.000000000000000,2208.239009859999896,0.000000000000000,1032.606227870000112,0.000000000000000
85,"Manguinhos, Brazil",-20.199344000000000,-40.190266999999999, , ,0.000000000000000,0.000000000000000,0.000000000000000,0, , , , ,0.000000000000000,0, , , , ,0.000000000000000,0.000000000000000,0.000000000000000,0.000000000000000,0.000000000000000,0.000000000000000
86,Praia da Baleia,-20.171105000000001,-40.184866000000000, , ,0.000000000000000,0.000000000000000,0.000000000000000,0, , , , ,0.000000000000000,0, , , , ,0.000000000000000,0.000000000000000,0.000000000000000,0.000000000000000,0.000000000000000,0.000000000000000
87,Jacaraipe - Solemar,-20.109774999999999,-40.171481000000000, , ,0.000000000000000,0.000000000000000,0.000000000000000,0, , , , ,0.000000000000000,0, , , , ,0.000000000000000,0.000000000000000,10165.350301700000273,0.000000000000000,6273.570405960000244,0.000000000000000
88,Xa,-20.107229000000000,-40.171174999999998, , ,0.000000000000000,0.000000000000000,0.000000000000000,0, , , , ,0.000000000000000,0, , , , ,0.000000000000000,0.000000000000000,11052.220220600000175,0.000000000000000,6838.581418990000202,0.000000000000000
89,Nova Almeida,-20.058461999999999,-40.183000999999997, , ,0.000000000000000,0.000000000000000,0.000000000000000,0, , , , ,0.000000000000000,0, , , , ,0.000000000000000,0.000000000000000,29496.539604199999303,0.000000000000000,18625.880165099999431,0.000000000000000
90,Praia Grande,-20.047100000000000,-40.182743000000002, , ,0.000000000000000,0.000000000000000,0.000000000000000,0, , , , ,0.000000000000000,0, , , , ,0.000000000000000,0.000000000000000,29496.539604199999303,1071.414358140000104,18625.880165099999431,642.943513869999947
91,Regencia,-19.562811000000000,-39.764263999999997, , ,0.000000000000000,0.000000000000000,0.000000000000000,0, , , , ,0.000000000000000,0, , , , ,0.000000000000000,0.000000000000000,0.000000000000000,0.000000000000000,0.000000000000000,0.000000000000000
92,Guriri,-18.910750000000000,-39.738563999999997, , ,0.000000000000000,0.000000000000000,0.000000000000000,0, , , , ,0.000000000000000,0, , , , ,0.000000000000000,0.000000000000000,358143.949033999990206,0.000000000000000,242565.069497999997111,0.000000000000000
93,Milionarios,-14.847631000000000,-39.022942000000000, , ,0.000000000000000,0.000000000000000,0.000000000000000,0, , , , ,0.000000000000000,0, , , , ,0.000000000000000,0.000000000000000,330584.048392999975476,0.000000000000000,199293.019935999996960,0.000000000000000
94,Sul,-14.831120000000000,-39.022562999999998, , ,0.000000000000000,0.000000000000000,0.000000000000000,0, , , , ,0.000000000000000,0, , , , ,0.000000000000000,0.000000000000000,348174.332712000003085,0.000000000000000,210339.959288000012748,0.000000000000000
95,Pedra da Cachorra,-14.821026000000000,-39.023632999999997, , ,0.000000000000000,0.000000000000000,0.000000000000000,0, , , , ,0.000000000000000,0, , , , ,0.000000000000000,0.000000000000000,353404.291453999991063,0.000000000000000,213691.058986999996705,0.000000000000000
96,Jardim Atlantico,-14.815026000000000,-39.023400000000002, , ,0.000000000000000,0.000000000000000,0.000000000000000,0, , , , ,0.000000000000000,0, , , , ,0.000000000000000,0.000000000000000,354995.820579999999609,340.000934600999983,214704.182139999989886,175.348258971999996
97,Baduska,-14.809442000000001,-39.023423000000001, , ,0.000000000000000,0.000000000000000,0.000000000000000,0, , , , ,0.000000000000000,0, , , , ,0.000000000000000,0.000000000000000,356905.203963999985717,499.377498627000023,215892.653561000013724,253.280822754000013
98,Norte,-14.660090000000000,-39.063006999999999, , ,0.000000000000000,0.000000000000000,0.000000000000000,0, , , , ,0.000000000000000,0, , , , ,0.000000000000000,0.000000000000000,45746.183322899996710,0.000000000000000,29088.324500999999145,0.000000000000000
99,Havaizinho,-14.468062000000000,-39.023161000000002, , ,0.000000000000000,0.000000000000000,0.000000000000000,0, , , , ,0.000000000000000,0, , , , ,0.000000000000000,0.000000000000000,14795.186372800000754,0.000000000000000,9800.018327710000449,0.000000000000000
100,Sao Jose,-14.316062000000001,-38.990701000000001, , ,0.000000000000000,0.000000000000000,0.000000000000000,0, , , , ,0.000000000000000,0, , , , ,0.000000000000000,0.000000000000000,58829.474193599999126,0.000000000000000,37992.119438200003060,0.000000000000000
101,Corals,-14.275408000000001,-38.982568999999998, , ,0.000000000000000,0.000000000000000,0.000000000000000,0, , , , ,0.000000000000000,0, , , , ,0.000000000000000,0.000000000000000,66404.684324300003937,0.000000000000000,43077.218427699997847,0.000000000000000
102,Tony,-13.016731999999999,-38.488781000000003, , ,0.000000000000000,0.000000000000000,0.000000000000000,0, , , , ,0.000000000000000,0, , , , ,0.000000000000000,0.000000000000000,0.000000000000000,0.000000000000000,0.000000000000000,0.000000000000000
103,Meridien,-13.016598000000000,-38.484878999999999, , ,0.000000000000000,0.000000000000000,0.000000000000000,0, , , , ,0.000000000000000,0, , , , ,0.000000000000000,0.000000000000000,0.000000000000000,0.000000000000000,0.000000000000000,0.000000000000000
104,Amaralina,-13.015369000000000,-38.471834000000001, , ,0.000000000000000,0.000000000000000,0.000000000000000,0, , , , ,0.000000000000000,0, , , , ,0.000000000000000,0.000000000000000,0.000000000000000,0.000000000000000,0.000000000000000,0.000000000000000
105,Tubao,-13.010683999999999,-38.461410999999998, , ,0.000000000000000,0.000000000000000,0.000000000000000,0, , , , ,0.000000000000000,0, , , , ,0.000000000000000,0.000000000000000,0.000000000000000,0.000000000000000,0.000000000000000,0.000000000000000
106,Psiu,-12.995919000000001,-38.439390000000003, , ,0.000000000000000,0.000000000000000,0.000000000000000,0, , , , ,0.000000000000000,0, , , , ,0.000000000000000,0.000000000000000,0.000000000000000,0.000000000000000,0.000000000000000,0.000000000000000
107,Alex,-12.973279000000000,-38.406477000000002, , ,0.000000000000000,0.000000000000000,0.000000000000000,0, , , , ,0.000000000000000,0, , , , ,0.000000000000000,0.000000000000000,0.000000000000000,0.000000000000000,0.000000000000000,0.000000000000000
108,Terceira Ponte,-12.963839999999999,-38.396822000000000, , ,0.000000000000000,0.000000000000000,0.000000000000000,0, , , , ,0.000000000000000,0, , , , ,0.000000000000000,0.000000000000000,0.000000000000000,0.000000000000000,0.000000000000000,0.000000000000000
109,SESC,-12.960485000000000,-38.390998000000003, , ,0.000000000000000,0.000000000000000,0.000000000000000,0, , , , ,0.000000000000000,0, , , , ,0.000000000000000,0.000000000000000,0.000000000000000,0.000000000000000,0.000000000000000,0.000000000000000
110,Farol,-12.958147000000000,-38.352812999999998, , ,0.000000000000000,0.000000000000000,0.000000000000000,0, , , , ,0.000000000000000,0, , , , ,0.000000000000000,0.000000000000000,0.000000000000000,0.000000000000000,0.000000000000000,0.000000000000000
111,Pedro do Sal,-12.954224000000000,-38.347234000000000, , ,0.000000000000000,0.000000000000000,0.000000000000000,0, , , , ,0.000000000000000,0, , , , ,0.000000000000000,0.000000000000000,0.000000000000000,0.000000000000000,0.000000000000000,0.000000000000000
112,Itapoa,-12.952339000000000,-38.369608999999997, , ,0.000000000000000,0.000000000000000,0.000000000000000,0, , , , ,0.000000000000000,0, , , , ,0.000000000000000,0.000000000000000,0.000000000000000,0.000000000000000,0.000000000000000,0.000000000000000
113,Seper,-12.952040999999999,-38.343243999999999, , ,0.000000000000000,0.000000000000000,0.000000000000000,0, , , , ,0.000000000000000,0, , , , ,0.000000000000000,0.000000000000000,0.000000000000000,0.000000000000000,0.000000000000000,0.000000000000000
114,Corrente,-12.948985000000000,-38.339199999999998, , ,0.000000000000000,0.000000000000000,0.000000000000000,0, , , , ,0.000000000000000,0, , , , ,0.000000000000000,0.000000000000000,0.000000000000000,0.000000000000000,0.000000000000000,0.000000000000000
115,Stela Maris,-12.947385000000001,-38.337372000000002, , ,0.000000000000000,0.000000000000000,0.000000000000000,0, , , , ,0.000000000000000,0, , , , ,0.000000000000000,0.000000000000000,0.000000000000000,0.000000000000000,0.000000000000000,0.000000000000000
116,Plator,-12.946393000000000,-38.333083999999999, , ,0.000000000000000,0.000000000000000,0.000000000000000,0, , , , ,0.000000000000000,0, , , , ,0.000000000000000,0.000000000000000,1846.108316419999937,0.000000000000000,1227.437715530000105,0.000000000000000
117,Aleluia,-12.926800999999999,-38.312618999999998, , ,0.000000000000000,0.000000000000000,0.000000000000000,0, , , , ,0.000000000000000,0, , , , ,0.000000000000000,0.000000000000000,12629.377624500000820,0.000000000000000,8358.266292570000587,0.000000000000000
118,Ipitanga,-12.920477000000000,-38.309717999999997, , ,0.000000000000000,0.000000000000000,0.000000000000000,0, , , , ,0.000000000000000,0, , , , ,0.000000000000000,0.000000000000000,12629.377624500000820,0.000000000000000,8358.266292570000587,0.000000000000000
119,Vilas,-12.894546000000000,-38.290790999999999, , ,0.000000000000000,0.000000000000000,0.000000000000000,0, , , , ,0.000000000000000,0, , , , ,0.000000000000000,0.000000000000000,12629.377624500000820,0.000000000000000,8358.266292570000587,0.000000000000000
120,Busca Vida,-12.863464000000000,-38.255961999999997, , ,0.000000000000000,0.000000000000000,0.000000000000000,0, , , , ,0.000000000000000,0, , , , ,0.000000000000000,0.000000000000000,12629.377624500000820,0.000000000000000,8358.266292570000587,0.000000000000000
121,Itacimirim,-12.639232000000000,-38.048194000000002, , ,0.000000000000000,0.000000000000000,0.000000000000000,0, , , , ,0.000000000000000,0, , , , ,0.000000000000000,0.000000000000000,0.000000000000000,0.000000000000000,0.000000000000000,0.000000000000000
122,Praia do Forte,-12.583304999999999,-38.005077999999997, , ,0.000000000000000,0.000000000000000,0.000000000000000,0, , , , ,0.000000000000000,0, , , , ,0.000000000000000,0.000000000000000,0.000000000000000,0.000000000000000,0.000000000000000,0.000000000000000
123,Imbassai,-12.342055000000000,-37.846200000000003, , ,0.000000000000000,0.000000000000000,0.000000000000000,0, , , , ,0.000000000000000,0, , , , ,0.000000000000000,0.000000000000000,102201.721141999994870,0.000000000000000,69087.204666100005852,0.000000000000000
124,Costa do Sauipe,-12.022171000000000,-37.645508000000000, , ,0.000000000000000,0.000000000000000,0.000000000000000,0, , , , ,0.000000000000000,0, , , , ,0.000000000000000,0.000000000000000,141464.776042999990750,0.000000000000000,93304.747093199999654,0.000000000000000
125,Marlin,-11.939802999999999,-37.602476000000003, , ,0.000000000000000,0.000000000000000,0.000000000000000,0, , , , ,0.000000000000000,0, , , , ,0.000000000000000,0.000000000000000,50499.662067400000524,0.000000000000000,33413.581337000003259,0.000000000000000
126,Conde,-11.848141000000000,-37.558169999999997, , ,0.000000000000000,0.000000000000000,0.000000000000000,0, , , , ,0.000000000000000,0, , , , ,0.000000000000000,0.000000000000000,389981.326808999991044,0.000000000000000,254118.566447999997763,0.000000000000000
127,Mangue Seco,-11.483613999999999,-37.364454000000002, , ,0.000000000000000,0.000000000000000,0.000000000000000,0, , , , ,0.000000000000000,0, , , , ,0.000000000000000,0.000000000000000,939791.453835999942385,0.000000000000000,618160.999395000049844,0.000000000000000
128,Mosqueiro,-11.138116000000000,-37.145493000000002, , ,0.000000000000000,0.000000000000000,0.000000000000000,0, , , , ,0.000000000000000,0, , , , ,0.000000000000000,0.000000000000000,652466.677850999985822,4382.461551669999608,419121.258318000007421,2902.987560269999904
129,Aruana,-11.067069000000000,-37.101289000000001, , ,0.000000000000000,0.000000000000000,0.000000000000000,0, , , , ,0.000000000000000,0, , , , ,0.000000000000000,0.000000000000000,500366.273371000017505,0.000000000000000,318042.737291000026744,0.000000000000000
130,Hawaiizinho,-11.043927999999999,-37.082977999999997, , ,0.000000000000000,0.000000000000000,0.000000000000000,0, , , , ,0.000000000000000,0, , , , ,0.000000000000000,0.000000000000000,445744.049791000026744,0.000000000000000,282271.696253000001889,0.000000000000000
131,Praia do Meio,-10.999541000000001,-37.050151000000000, , ,0.000000000000000,0.000000000000000,0.000000000000000,0, , , , ,0.000000000000000,0, , , , ,0.000000000000000,0.000000000000000,285659.267246000003070,0.000000000000000,181290.595314000005601,0.000000000000000
132,Pirambu,-10.746346000000001,-36.855099000000003, , ,0.000000000000000,0.000000000000000,0.000000000000000,0, , , , ,0.000000000000000,0, , , , ,0.000000000000000,0.000000000000000,5732.781400679999933,2337.625957490000019,3779.728780750000169,1539.167896270000028
133,Ponta do Mangue,-10.639483000000000,-36.678539000000001, , ,0.000000000000000,0.000000000000000,0.000000000000000,0, , , , ,0.000000000000000,0, , , , ,0.000000000000000,0.000000000000000,0.000000000000000,0.000000000000000,0.000000000000000,0.000000000000000
134,Pontal de Peba,-10.367584000000001,-36.303941000000002, , ,0.000000000000000,0.000000000000000,0.000000000000000,0, , , , ,0.000000000000000,0, , , , ,0.000000000000000,0.000000000000000,0.000000000000000,0.000000000000000,0.000000000000000,0.000000000000000
135,Mihai,-10.196728000000000,-36.181641999999997, , ,0.000000000000000,0.000000000000000,0.000000000000000,0, , , , ,0.000000000000000,0, , , , ,0.000000000000000,0.000000000000000,88319.209816000002320,0.000000000000000,58176.650917099999788,0.000000000000000
136,Pontal do Coruripe,-10.160774999999999,-36.150663999999999, , ,0.000000000000000,0.000000000000000,0.000000000000000,0, , , , ,0.000000000000000,0, , , , ,0.000000000000000,0.000000000000000,88319.209816000002320,11183.273355499999525,58176.650917099999788,7189.278108600000451
137,Forjos,-10.107661999999999,-36.097672000000003, , ,0.000000000000000,0.000000000000000,0.000000000000000,0, , , , ,0.000000000000000,0, , , , ,0.000000000000000,0.000000000000000,98199.906772600006661,0.000000000000000,64742.468414299997676,0.000000000000000
138,Poxim,-10.063563000000000,-36.040908999999999, , ,0.000000000000000,0.000000000000000,0.000000000000000,0, , , , ,0.000000000000000,0, , , , ,0.000000000000000,0.000000000000000,54105.485736800001177,0.000000000000000,33959.109848000000056,0.000000000000000
139,Jacarecica,-9.916383000000000,-35.945963999999996, , ,0.000000000000000,0.000000000000000,0.000000000000000,0, , , , ,0.000000000000000,0, , , , ,0.000000000000000,0.000000000000000,164905.497103000001516,0.000000000000000,90694.012803999998141,0.000000000000000
140,Praia do Meio,-9.824446999999999,-35.877803000000000, , ,0.000000000000000,0.000000000000000,0.000000000000000,0, , , , ,0.000000000000000,0, , , , ,0.000000000000000,0.000000000000000,179605.691025000007357,0.000000000000000,100922.660621999995783,0.000000000000000
141,Praia do Pontal,-9.682589999999999,-35.758536999999997, , ,0.000000000000000,0.000000000000000,0.000000000000000,0, , , , ,0.000000000000000,0, , , , ,0.000000000000000,0.000000000000000,243144.370415000012144,544.045230865000008,155631.307865000009770,350.696487427000022
142,Salgema,-9.679629000000000,-35.718974000000003, , ,0.000000000000000,0.000000000000000,0.000000000000000,0, , , , ,0.000000000000000,0, , , , ,0.000000000000000,0.000000000000000,219517.798711999988882,0.000000000000000,140531.875711000000592,0.000000000000000
143,Pier do Emissario,-9.673301000000000,-35.715234000000002, , ,0.000000000000000,0.000000000000000,0.000000000000000,0, , , , ,0.000000000000000,0, , , , ,0.000000000000000,0.000000000000000,218570.238462000008440,0.000000000000000,139733.067106000002241,0.000000000000000
144,Praia do Sobral,-9.666869000000000,-35.710735000000000, , ,0.000000000000000,0.000000000000000,0.000000000000000,0, , , , ,0.000000000000000,0, , , , ,0.000000000000000,0.000000000000000,203668.535285999998450,0.000000000000000,130186.329287999993539,0.000000000000000
145,"Pico da Barra, Brazil",-9.665630000000000,-35.697186000000002, , ,0.000000000000000,0.000000000000000,0.000000000000000,0, , , , ,0.000000000000000,0, , , , ,0.000000000000000,0.000000000000000,137667.785243999998784,0.000000000000000,88239.132511100004194,0.000000000000000
146,Pedra Virada,-9.585521999999999,-35.660038000000000, , ,0.000000000000000,0.000000000000000,0.000000000000000,0, , , , ,0.000000000000000,0, , , , ,0.000000000000000,0.000000000000000,43824.500993699999526,468.618148803999986,26613.966413499998453,272.763912200999982
147,Praia de Jatiuca,-9.531449000000000,-35.590927999999998, , ,0.000000000000000,0.000000000000000,0.000000000000000,0, , , , ,0.000000000000000,0, , , , ,0.000000000000000,0.000000000000000,66361.988508199996431,164.636188507000014,41031.488611200002197,97.415687560999999
148,Garca Torta,-9.487114000000000,-35.557476999999999, , ,0.000000000000000,0.000000000000000,0.000000000000000,0, , , , ,0.000000000000000,0, , , , ,0.000000000000000,0.000000000000000,65738.679536800002097,14458.852926300000036,41167.870649299999059,9176.558031079999637
149,Mirante da Sirena,-9.430906000000000,-35.503683000000002, , ,0.000000000000000,0.000000000000000,0.000000000000000,0, , , , ,0.000000000000000,0, , , , ,0.000000000000000,0.000000000000000,152772.061677999998210,0.000000000000000,93713.892362600003253,0.000000000000000
150,Japaratinga,-9.261582000000001,-35.353366000000001, , ,0.000000000000000,0.000000000000000,0.000000000000000,0, , , , ,0.000000000000000,0, , , , ,0.000000000000000,0.000000000000000,68875.287103700000443,0.000000000000000,41830.296907399999327,0.000000000000000
151,Impossivel,-8.615505000000001,-35.020375000000001, , ,0.000000000000000,0.000000000000000,0.000000000000000,0, , , , ,0.000000000000000,0, , , , ,0.000000000000000,0.000000000000000,684253.640442000003532,0.000000000000000,426563.815514000016265,0.000000000000000
152,Serrambi,-8.576358000000001,-35.028714999999998, , ,0.000000000000000,0.000000000000000,0.000000000000000,0, , , , ,0.000000000000000,0, , , , ,0.000000000000000,0.000000000000000,627244.466556999948807,0.000000000000000,387733.921130999980960,0.000000000000000
153,Porto de Galinhas,-8.488678000000000,-34.999501000000002, , ,0.000000000000000,0.000000000000000,0.000000000000000,0, , , , ,0.000000000000000,0, , , , ,0.000000000000000,0.000000000000000,594706.909230999997817,0.000000000000000,349079.371510999975726,0.000000000000000
154,Cupe,-8.479708000000000,-34.996577000000002, , ,0.000000000000000,0.000000000000000,0.000000000000000,0, , , , ,0.000000000000000,0, , , , ,0.000000000000000,0.000000000000000,598828.962632999988273,433.544420242000001,349702.831244000000879,292.247072220000007
155,Gaibu,-8.341567000000000,-34.948825999999997, , ,0.000000000000000,0.000000000000000,0.000000000000000,0, , , , ,0.000000000000000,0, , , , ,0.000000000000000,0.000000000000000,384688.275280000001658,0.000000000000000,221406.376652000006288,0.000000000000000
156,Bessa,-7.091138000000000,-34.832765000000002, , ,0.000000000000000,0.000000000000000,0.000000000000000,0, , , , ,0.000000000000000,0, , , , ,0.000000000000000,0.000000000000000,877956.069755999953486,0.000000000000000,584455.190575000015087,0.000000000000000
157,Saji,-6.466880000000000,-34.970449000000002, , ,0.000000000000000,0.000000000000000,0.000000000000000,0, , , , ,0.000000000000000,0, , , , ,0.000000000000000,0.000000000000000,8675.755752560000474,114.303777694999994,5805.975112920000356,77.932550430299997
158,Farol,-6.408908000000000,-34.979016999999999, , ,0.000000000000000,0.000000000000000,0.000000000000000,0, , , , ,0.000000000000000,0, , , , ,0.000000000000000,0.000000000000000,241308.532134999986738,0.000000000000000,156079.426769000012428,0.000000000000000
159,Xilauzinho,-6.395101000000000,-34.983204999999998, , ,0.000000000000000,0.000000000000000,0.000000000000000,0, , , , ,0.000000000000000,0, , , , ,0.000000000000000,0.000000000000000,386138.139563000004273,0.000000000000000,250670.065377999999328,0.000000000000000
160,Mar Aberto,-6.379758000000000,-34.989437000000002, , ,0.000000000000000,0.000000000000000,0.000000000000000,0, , , , ,0.000000000000000,0, , , , ,0.000000000000000,0.000000000000000,560629.107013999950141,0.000000000000000,363633.304721999971662,0.000000000000000
161,Pontal,-6.368680000000000,-34.993423999999997, , ,0.000000000000000,0.000000000000000,0.000000000000000,0, , , , ,0.000000000000000,0, , , , ,0.000000000000000,0.000000000000000,611772.792897999985144,0.000000000000000,396696.191507000010461,0.000000000000000
162,Mar da Frente,-6.365217000000000,-35.006211999999998, , ,0.000000000000000,0.000000000000000,0.000000000000000,0, , , , ,0.000000000000000,0, , , , ,0.000000000000000,0.000000000000000,735303.259120999951847,0.000000000000000,475408.074123000027612,0.000000000000000
163,Lajinha,-6.278960000000000,-35.033028000000002, , ,0.000000000000000,0.000000000000000,0.000000000000000,0, , , , ,0.000000000000000,0, , , , ,0.000000000000000,0.000000000000000,278573.899480999971274,0.000000000000000,185421.026178000000073,0.000000000000000
164,Afogados,-6.244350000000000,-35.036464000000002, , ,0.000000000000000,0.000000000000000,0.000000000000000,0, , , , ,0.000000000000000,0, , , , ,0.000000000000000,0.000000000000000,60179.220298799999000,0.000000000000000,39998.882240300001286,0.000000000000000
165,Sororoca,-6.238074000000000,-35.035608000000003, , ,0.000000000000000,0.000000000000000,0.000000000000000,0, , , , ,0.000000000000000,0, , , , ,0.000000000000000,0.000000000000000,46184.642612499999814,0.000000000000000,30958.706249200000457,0.000000000000000
166,Abacateiro,-6.233891000000000,-35.036746999999998, , ,0.000000000000000,0.000000000000000,0.000000000000000,0, , , , ,0.000000000000000,0, , , , ,0.000000000000000,0.000000000000000,41559.262010600003123,0.000000000000000,27997.269350099999428,0.000000000000000
167,Tibau do Sul,-6.180279000000000,-35.089708999999999, , ,0.000000000000000,0.000000000000000,0.000000000000000,0, , , , ,0.000000000000000,0, , , , ,0.000000000000000,0.000000000000000,205057.286304000008386,0.000000000000000,139655.133185999991838,0.000000000000000
168,Tabatinga,-6.049479000000000,-35.108238000000000, , ,0.000000000000000,0.000000000000000,0.000000000000000,0, , , , ,0.000000000000000,0, , , , ,0.000000000000000,0.000000000000000,44581.390838599996641,0.000000000000000,29809.201328300001478,0.000000000000000
169,Xoxoline,-6.005800000000000,-35.105258999999997, , ,0.000000000000000,0.000000000000000,0.000000000000000,0, , , , ,0.000000000000000,0, , , , ,0.000000000000000,0.000000000000000,5715.602552409999589,0.000000000000000,3584.897493360000226,0.000000000000000
170,Pirangi Reef,-5.980259000000000,-35.107796000000000, , ,0.000000000000000,0.000000000000000,0.000000000000000,0, , , , ,0.000000000000000,0, , , , ,0.000000000000000,0.000000000000000,5715.602552409999589,0.000000000000000,3584.897493360000226,0.000000000000000
171,Cotovelo,-5.949906000000000,-35.151975000000000, , ,0.000000000000000,0.000000000000000,0.000000000000000,0, , , , ,0.000000000000000,0, , , , ,0.000000000000000,0.000000000000000,5715.602552409999589,0.000000000000000,3584.897493360000226,0.000000000000000
172,Miami,-5.794834000000000,-35.181663999999998, , ,0.000000000000000,0.000000000000000,0.000000000000000,0, , , , ,0.000000000000000,0, , , , ,0.000000000000000,0.000000000000000,401311.551319000020158,0.000000000000000,274751.213298999995459,0.000000000000000
173,Areia Preta,-5.792249000000000,-35.184387000000001, , ,0.000000000000000,0.000000000000000,0.000000000000000,0, , , , ,0.000000000000000,0, , , , ,0.000000000000000,0.000000000000000,413809.370435999997426,0.000000000000000,283401.726542000018526,0.000000000000000
174,Praia dos Artistas,-5.781239000000000,-35.192050000000002, , ,0.000000000000000,0.000000000000000,0.000000000000000,0, , , , ,0.000000000000000,0, , , , ,0.000000000000000,0.000000000000000,437800.300351999991108,0.000000000000000,300059.809617999999318,0.000000000000000
175,Genipabu,-5.694407000000000,-35.201922000000003, , ,0.000000000000000,0.000000000000000,0.000000000000000,0, , , , ,0.000000000000000,0, , , , ,0.000000000000000,0.000000000000000,285301.905785000009928,1940.204502110000021,192473.924739999987651,1363.819686889999957
176,Touros Area,-5.197434000000000,-35.457929999999998, , ,0.000000000000000,0.000000000000000,0.000000000000000,0, , , , ,0.000000000000000,0, , , , ,0.000000000000000,0.000000000000000,43.197444915799998,0.000000000000000,19.483142852800000,0.000000000000000
177,Urca da Concei&ccedil;&atilde;o,-5.069617000000000,-35.800230999999997, , ,0.000000000000000,0.000000000000000,0.000000000000000,0, , , , ,0.000000000000000,0, , , , ,0.000000000000000,0.000000000000000,0.000000000000000,0.000000000000000,0.000000000000000,0.000000000000000
178,Cocoa das Lavadeiras,-5.066515000000000,-35.862005000000003, , ,0.000000000000000,0.000000000000000,0.000000000000000,0, , , , ,0.000000000000000,0, , , , ,0.000000000000000,0.000000000000000,0.000000000000000,0.000000000000000,0.000000000000000,0.000000000000000
179,Baia das Ratas,-3.813000000000000,-32.393000000000001, , ,0.000000000000000,0.000000000000000,0.000000000000000,0, , , , ,0.000000000000000,0, , , , ,0.000000000000000,0.000000000000000,0.000000000000000,0.000000000000000,0.000000000000000,0.000000000000000
180,Volta da Jurema,-3.724294000000000,-38.496071999999998, , ,0.000000000000000,0.000000000000000,0.000000000000000,0, , , , ,0.000000000000000,0, , , , ,0.000000000000000,0.000000000000000,167825.108236000000034,0.000000000000000,98779.503507600005833,0.000000000000000
181,Portao,-3.719326000000000,-38.510655000000000, , ,0.000000000000000,0.000000000000000,0.000000000000000,0, , , , ,0.000000000000000,0, , , , ,0.000000000000000,0.000000000000000,150885.183427999989362,0.000000000000000,88122.227590599999530,0.000000000000000
182,Barra do Ceara,-3.692659000000000,-38.584716000000000, , ,0.000000000000000,0.000000000000000,0.000000000000000,0, , , , ,0.000000000000000,0, , , , ,0.000000000000000,0.000000000000000,254345.366883999988204,0.000000000000000,157462.714566999988165,0.000000000000000
183,Praia do Pecem,-3.546170000000000,-38.806919000000001, , ,0.000000000000000,0.000000000000000,0.000000000000000,0, , , , ,0.000000000000000,0, , , , ,0.000000000000000,0.000000000000000,5366.582958220000364,0.000000000000000,3390.066162109999823,0.000000000000000
184,Tabinha,-3.500935000000000,-38.911282000000000, , ,0.000000000000000,0.000000000000000,0.000000000000000,0, , , , ,0.000000000000000,0, , , , ,0.000000000000000,0.000000000000000,4036.995069500000227,0.000000000000000,2532.808061600000201,0.000000000000000
185,Pedra do Meio,-3.410858000000000,-39.040807000000001, , ,0.000000000000000,0.000000000000000,0.000000000000000,0, , , , ,0.000000000000000,0, , , , ,0.000000000000000,0.000000000000000,15241.789993300000788,0.000000000000000,9780.535381319999942,0.000000000000000
186,Havaizinho,-3.403507000000000,-39.022171000000000, , ,0.000000000000000,0.000000000000000,0.000000000000000,0, , , , ,0.000000000000000,0, , , , ,0.000000000000000,0.000000000000000,15241.789993300000788,0.000000000000000,9780.535381319999942,0.000000000000000
187,Curral,-3.403353000000000,-39.025868000000003, , ,0.000000000000000,0.000000000000000,0.000000000000000,0, , , , ,0.000000000000000,0, , , , ,0.000000000000000,0.000000000000000,15241.789993300000788,0.000000000000000,9780.535381319999942,0.000000000000000
188,Outside,-3.398539000000000,-39.013306000000000, , ,0.000000000000000,0.000000000000000,0.000000000000000,0, , , , ,0.000000000000000,0, , , , ,0.000000000000000,0.000000000000000,15241.789993300000788,0.000000000000000,9780.535381319999942,0.000000000000000
189,Atins,-2.555789000000000,-42.727836000000003, , ,0.000000000000000,0.000000000000000,0.000000000000000,0, , , , ,0.000000000000000,0, , , , ,0.000000000000000,0.000000000000000,226542.229875999997603,8657.382169720000093,154832.500525000010384,6429.435392379999939
190,Ponta d'Areia,-2.497384000000000,-44.311779000000001, , ,0.000000000000000,0.000000000000000,0.000000000000000,0, , , , ,0.000000000000000,0, , , , ,0.000000000000000,0.000000000000000,168584.041724999988219,1377.940628049999987,168275.862583000009181,1441.752174380000042
191,S&atilde;o Marcos,-2.485445000000000,-44.297899999999998, , ,0.000000000000000,0.000000000000000,0.000000000000000,0, , , , ,0.000000000000000,0, , , , ,0.000000000000000,0.000000000000000,159568.994574000011198,0.000000000000000,159586.382909999985714,0.000000000000000
192,Calhau,-2.480673000000000,-44.249679999999998, , ,0.000000000000000,0.000000000000000,0.000000000000000,0, , , , ,0.000000000000000,0, , , , ,0.000000000000000,0.000000000000000,98393.661359799996717,0.000000000000000,98467.778444299998228,0.000000000000000
193,Olho D'Agu,-2.477097000000000,-44.230155000000003, , ,0.000000000000000,0.000000000000000,0.000000000000000,0, , , , ,0.000000000000000,0, , , , ,0.000000000000000,0.000000000000000,110153.359303999997792,0.000000000000000,109183.504033999997773,0.000000000000000
194,Ponta do Farol,-2.456442000000000,-44.173347999999997, , ,0.000000000000000,0.000000000000000,0.000000000000000,0, , , , ,0.000000000000000,0, , , , ,0.000000000000000,0.000000000000000,315587.165005000017118,4441.703826900000422,309957.238563999999315,4598.020553590000418
195, ,0.000000000000000,0.000000000000000,Rio Grande Do Sul,Hermenegildo,-33.668354000000001,-53.262405000000001,3.000000000000000,3,Right and left,Beach-break,All surfers, ,0.000000000000000,0, , , , ,0.000000000000000,0.000000000000000,0.000000000000000,0.000000000000000,0.000000000000000,0.000000000000000
196, ,0.000000000000000,0.000000000000000,Rio Grande Do Sul,Navio,-32.290560999999997,-52.258674999999997,3.000000000000000,2,Right and left,Beach-break,All surfers, ,0.000000000000000,0, , , , ,0.000000000000000,0.000000000000000,0.000000000000000,0.000000000000000,0.000000000000000,0.000000000000000
197, ,0.000000000000000,0.000000000000000,Rio Grande Do Sul,Tres Marias,-32.192610999999999,-52.085065999999998,5.000000000000000,2,Right and left,Sand-bar,Pros or kamikaze only..., ,0.000000000000000,0, , , , ,0.000000000000000,0.000000000000000,0.000000000000000,0.000000000000000,0.000000000000000,0.000000000000000
198, ,0.000000000000000,0.000000000000000,Rio Grande Do Sul,Praia do Cassino,-32.178336999999999,-52.142142999999997,3.000000000000000,2,Right and left,Sand-bar,All surfers, ,0.000000000000000,0, , , , ,0.000000000000000,0.000000000000000,0.000000000000000,0.000000000000000,0.000000000000000,0.000000000000000
199, ,0.000000000000000,0.000000000000000,Rio Grande Do Sul,Sao Jose do Norte,-32.008076000000003,-52.018889999999999,3.000000000000000,0,Right and left,Beach-break,All surfers, ,0.000000000000000,0, , , , ,0.000000000000000,0.000000000000000,0.000000000000000,0.000000000000000,0.000000000000000,0.000000000000000
200, ,0.000000000000000,0.000000000000000,Rio Grande Do Sul,Quintão,-30.410782000000001,-50.292664000000002,3.500000000000000,3,Right and left,Sand-bar,Experienced surfers, ,0.000000000000000,0, , , , ,0.000000000000000,0.000000000000000,0.000000000000000,0.000000000000000,0.000000000000000,0.000000000000000
201, ,0.000000000000000,0.000000000000000,Rio Grande Do Sul,Nova Tramandaí,-30.045256999999999,-50.150033999999998,3.000000000000000,3,Right and left,Beach-break,All surfers, ,0.000000000000000,0, , , , ,0.000000000000000,0.000000000000000,0.000000000000000,0.000000000000000,0.000000000000000,0.000000000000000
202, ,0.000000000000000,0.000000000000000,Rio Grande Do Sul,Oasis Sul,-30.039822999999998,-50.147266000000002,3.000000000000000,3,Right and left,Beach-break,All surfers, ,0.000000000000000,0, , , , ,0.000000000000000,0.000000000000000,0.000000000000000,0.000000000000000,0.000000000000000,0.000000000000000
203, ,0.000000000000000,0.000000000000000,Rio Grande Do Sul,Tramandai - Malvina,-30.005490000000002,-50.129156000000002,3.500000000000000,3,Right and left,Beach-break,All surfers, ,0.000000000000000,0, , , , ,0.000000000000000,0.000000000000000,0.000000000000000,0.000000000000000,0.000000000000000,0.000000000000000
204, ,0.000000000000000,0.000000000000000,Rio Grande Do Sul,Tramandai,-29.993077000000000,-50.125508000000004,3.000000000000000,3,Right and left,Beach-break,All surfers, ,0.000000000000000,0, , , , ,0.000000000000000,0.000000000000000,0.000000000000000,0.000000000000000,0.000000000000000,0.000000000000000
205, ,0.000000000000000,0.000000000000000,Rio Grande Do Sul,Rainha do Mar,-29.859477999999999,-50.064568999999999,3.500000000000000,5,Right and left,Beach-break,All surfers, ,0.000000000000000,0, , , , ,0.000000000000000,0.000000000000000,0.000000000000000,0.000000000000000,0.000000000000000,0.000000000000000
206, ,0.000000000000000,0.000000000000000,Rio Grande Do Sul,Xangri-lá,-29.785982000000001,-50.024636000000001,3.000000000000000,3,Right and left,Beach-break,All surfers, ,0.000000000000000,0, , , , ,0.000000000000000,0.000000000000000,0.000000000000000,0.000000000000000,0.000000000000000,0.000000000000000
207, ,0.000000000000000,0.000000000000000,Rio Grande Do Sul,Atlântida - Pier,-29.784716000000000,-50.022554000000000,3.000000000000000,3,Right and left,Sand-bar,All surfers, ,0.000000000000000,0, , , , ,0.000000000000000,0.000000000000000,0.000000000000000,0.000000000000000,0.000000000000000,0.000000000000000
208, ,0.000000000000000,0.000000000000000,Rio Grande Do Sul,Capao da Canoa,-29.758676999999999,-50.010967000000001,3.000000000000000,3,Right and left,Sand-bar,All surfers, ,0.000000000000000,0, , , , ,0.000000000000000,0.000000000000000,0.000000000000000,0.000000000000000,0.000000000000000,0.000000000000000
209, ,0.000000000000000,0.000000000000000,Rio Grande Do Sul,Capao Novo,-29.686972000000001,-49.972558999999997,3.000000000000000,3,Right and left,Beach-break,All surfers, ,0.000000000000000,0, , , , ,0.000000000000000,0.000000000000000,0.000000000000000,0.000000000000000,0.000000000000000,0.000000000000000
210, ,0.000000000000000,0.000000000000000,Rio Grande Do Sul,Curumim,-29.625605000000000,-49.935744999999997,3.000000000000000,4,Right and left,Beach-break,Experienced surfers, ,0.000000000000000,0, , , , ,0.000000000000000,0.000000000000000,0.000000000000000,0.000000000000000,0.000000000000000,0.000000000000000
211, ,0.000000000000000,0.000000000000000,Rio Grande Do Sul,Itapeva,-29.372975000000000,-49.784109999999998,3.000000000000000,3,Right and left,Beach-break,All surfers, ,0.000000000000000,0, , , , ,0.000000000000000,0.000000000000000,0.000000000000000,0.000000000000000,0.000000000000000,0.000000000000000
212, ,0.000000000000000,0.000000000000000,Rio Grande Do Sul,Guarita,-29.357804999999999,-49.733997000000002,3.000000000000000,2,Right and left,Beach-break,All surfers, ,0.000000000000000,0, , , , ,0.000000000000000,0.000000000000000,0.000000000000000,0.000000000000000,0.000000000000000,0.000000000000000
213, ,0.000000000000000,0.000000000000000,Rio Grande Do Sul,Cal,-29.349421000000000,-49.729849999999999,3.500000000000000,3,Right and left,Beach-break,All surfers, ,0.000000000000000,0, , , , ,0.000000000000000,0.000000000000000,0.000000000000000,0.000000000000000,0.000000000000000,0.000000000000000
214, ,0.000000000000000,0.000000000000000,Rio Grande Do Sul,Ilha dos Lobos,-29.346876999999999,-49.704411999999998,5.000000000000000,2,Left,Reef-rocky,Pros or kamikaze only..., ,0.000000000000000,0, , , , ,0.000000000000000,0.000000000000000,0.000000000000000,0.000000000000000,0.000000000000000,0.000000000000000
215, ,0.000000000000000,0.000000000000000,Rio Grande Do Sul,Prainha,-29.342434999999998,-49.724497000000000,3.500000000000000,3,Right and left,Beach-break,Experienced surfers, ,0.000000000000000,0, , , , ,0.000000000000000,0.000000000000000,0.000000000000000,0.000000000000000,0.000000000000000,0.000000000000000
216, ,0.000000000000000,0.000000000000000,Rio Grande Do Sul,Saraiva,-29.340395999999998,-49.723241000000002,3.500000000000000,3,Right and left,Beach-break,Experienced surfers, ,0.000000000000000,0, , , , ,0.000000000000000,0.000000000000000,0.000000000000000,0.000000000000000,0.000000000000000,0.000000000000000
217, ,0.000000000000000,0.000000000000000,Rio Grande Do Sul,Molhes,-29.327311000000002,-49.712007999999997,3.500000000000000,3,Right and left,Beach-break,All surfers, ,0.000000000000000,0, , , , ,0.000000000000000,0.000000000000000,0.000000000000000,0.000000000000000,0.000000000000000,0.000000000000000
218, ,0.000000000000000,0.000000000000000,Rio Grande Do Sul,Passo de Torres,-29.324159000000002,-49.712415999999997,3.500000000000000,2,Right and left,Rivermouth,Experienced surfers, ,0.000000000000000,0, , , , ,0.000000000000000,0.000000000000000,0.000000000000000,0.000000000000000,0.000000000000000,0.000000000000000
219, ,0.000000000000000,0.000000000000000,Santa Catarina South,Gaivota,-29.164828000000000,-49.582157000000002,3.000000000000000,2,Right and left,Beach-break,Experienced surfers, ,0.000000000000000,0, , , , ,0.000000000000000,0.000000000000000,0.000000000000000,0.000000000000000,0.000000000000000,0.000000000000000
220, ,0.000000000000000,0.000000000000000,Santa Catarina South,Arroio do Silva,-28.943866000000000,-49.385604999999998,3.500000000000000,2,Right and left,Beach-break,Experienced surfers, ,0.000000000000000,0, , , , ,0.000000000000000,0.000000000000000,0.000000000000000,0.000000000000000,0.000000000000000,0.000000000000000
221, ,0.000000000000000,0.000000000000000,Santa Catarina South,Morro dos Conventos,-28.937256000000001,-49.329642999999997,3.500000000000000,3,Right and left,Beach-break,All surfers, ,0.000000000000000,0, , , , ,0.000000000000000,0.000000000000000,0.000000000000000,0.000000000000000,0.000000000000000,0.000000000000000
222, ,0.000000000000000,0.000000000000000,Santa Catarina South,Rincão,-28.833846999999999,-49.216003000000001,3.500000000000000,4,Right and left,Beach-break,Experienced surfers, ,0.000000000000000,0, , , , ,0.000000000000000,0.000000000000000,0.000000000000000,0.000000000000000,0.000000000000000,0.000000000000000
223, ,0.000000000000000,0.000000000000000,Santa Catarina South,Jaguaruna,-28.635157000000000,-48.948211999999998,3.500000000000000,3,Right and left,Beach-break,All surfers, ,0.000000000000000,0, , , , ,0.000000000000000,0.000000000000000,0.000000000000000,0.000000000000000,0.000000000000000,0.000000000000000
224, ,0.000000000000000,0.000000000000000,Santa Catarina South,Camacho,-28.615946000000001,-48.859506000000003,3.000000000000000,2, ,Beach-break,All surfers, ,0.000000000000000,0, , , , ,0.000000000000000,0.000000000000000,0.000000000000000,0.000000000000000,0.000000000000000,0.000000000000000
225, ,0.000000000000000,0.000000000000000,Santa Catarina South,Cigana,-28.613534999999999,-48.845387000000002,3.000000000000000,3,Right and left,Beach-break,Experienced surfers, ,0.000000000000000,0, , , , ,0.000000000000000,0.000000000000000,0.000000000000000,0.000000000000000,0.000000000000000,0.000000000000000
226, ,0.000000000000000,0.000000000000000,Santa Catarina South,Cardozo,-28.607516000000000,-48.822994999999999,3.500000000000000,4,Right and left,Beach-break,All surfers, ,0.000000000000000,0, , , , ,0.000000000000000,0.000000000000000,0.000000000000000,0.000000000000000,0.000000000000000,0.000000000000000
227, ,0.000000000000000,0.000000000000000,Santa Catarina South,Cemiterio,-28.604341999999999,-48.811998000000003,5.000000000000000,1,Right,Point-break,Pros or kamikaze only..., ,0.000000000000000,0, , , , ,0.000000000000000,0.000000000000000,0.000000000000000,0.000000000000000,0.000000000000000,0.000000000000000
228, ,0.000000000000000,0.000000000000000,Santa Catarina South,Prainha do Farol,-28.600442000000001,-48.816654999999997,3.000000000000000,1,Right,Beach-break,All surfers, ,0.000000000000000,0, , , , ,0.000000000000000,0.000000000000000,0.000000000000000,0.000000000000000,0.000000000000000,0.000000000000000
229, ,0.000000000000000,0.000000000000000,Santa Catarina South,Ipoa,-28.536688999999999,-48.765521000000000,3.000000000000000,4,Right and left,Beach-break,All surfers, ,0.000000000000000,0, , , , ,0.000000000000000,0.000000000000000,0.000000000000000,0.000000000000000,0.000000000000000,0.000000000000000
230, ,0.000000000000000,0.000000000000000,Santa Catarina South,Teresa,-28.524982000000001,-48.762453000000001,3.000000000000000,3,Right and left,Beach-break,All surfers, ,0.000000000000000,0, , , , ,0.000000000000000,0.000000000000000,0.000000000000000,0.000000000000000,0.000000000000000,0.000000000000000
231, ,0.000000000000000,0.000000000000000,Santa Catarina South,Praia de Cima,-28.497350000000001,-48.748752000000003,3.500000000000000,2,Right and left,Beach-break,All surfers, ,0.000000000000000,0, , , , ,0.000000000000000,0.000000000000000,0.000000000000000,0.000000000000000,0.000000000000000,0.000000000000000
232, ,0.000000000000000,0.000000000000000,Santa Catarina South,Laguna,-28.473973000000001,-48.762645999999997,3.500000000000000,3,Right and left,Beach-break,All surfers, ,0.000000000000000,0, , , , ,0.000000000000000,0.000000000000000,0.000000000000000,0.000000000000000,0.000000000000000,0.000000000000000
233, ,0.000000000000000,0.000000000000000,Santa Catarina South,Cavalinho,-28.419032000000001,-48.744278000000001,3.500000000000000,3,Right,Point-break,Experienced surfers, ,0.000000000000000,0, , , , ,0.000000000000000,0.000000000000000,0.000000000000000,0.000000000000000,0.000000000000000,0.000000000000000
234, ,0.000000000000000,0.000000000000000,Santa Catarina South,Itapirubá,-28.342309000000000,-48.707799999999999,3.500000000000000,4,Right and left,Beach-break,All surfers, ,0.000000000000000,0, , , , ,0.000000000000000,0.000000000000000,0.000000000000000,0.000000000000000,0.000000000000000,0.000000000000000
235, ,0.000000000000000,0.000000000000000,Santa Catarina South,Itapirubá Norte,-28.336776000000000,-48.704709999999999,3.500000000000000,3,Right and left,Beach-break,All surfers, ,0.000000000000000,0, , , , ,0.000000000000000,0.000000000000000,0.000000000000000,0.000000000000000,0.000000000000000,0.000000000000000
236, ,0.000000000000000,0.000000000000000,Santa Catarina South,Castelinho,-28.256232000000001,-48.672694999999997,4.000000000000000,4,Right and left,Beach-break,Experienced surfers, ,0.000000000000000,0, , , , ,0.000000000000000,0.000000000000000,0.000000000000000,0.000000000000000,0.000000000000000,0.000000000000000
237, ,0.000000000000000,0.000000000000000,Santa Catarina South,Praia da Vila,-28.241149000000000,-48.653877000000001,4.000000000000000,4,Right and left,Sand-bar,Experienced surfers, ,0.000000000000000,0, , , , ,0.000000000000000,0.000000000000000,0.000000000000000,0.000000000000000,0.000000000000000,0.000000000000000
238, ,0.000000000000000,0.000000000000000,Santa Catarina South,Ribanceira,-28.191742000000001,-48.661344000000000,3.000000000000000,2,Right and left,Sand-bar,All surfers, ,0.000000000000000,0, , , , ,0.000000000000000,0.000000000000000,0.000000000000000,0.000000000000000,0.000000000000000,0.000000000000000
239, ,0.000000000000000,0.000000000000000,Santa Catarina South,Ibiraquera,-28.153732000000002,-48.645895000000003,4.000000000000000,4,Right and left,Point-break,Experienced surfers, ,0.000000000000000,0, , , , ,0.000000000000000,0.000000000000000,0.000000000000000,0.000000000000000,0.000000000000000,0.000000000000000
240, ,0.000000000000000,0.000000000000000,Santa Catarina South,Rosa Sul,-28.135401999999999,-48.642691999999997,3.500000000000000,4,Right and left,Beach-break,All surfers, ,0.000000000000000,0, , , , ,0.000000000000000,0.000000000000000,0.000000000000000,0.000000000000000,0.000000000000000,0.000000000000000
241, ,0.000000000000000,0.000000000000000,Santa Catarina South,Rosa Norte,-28.124375000000001,-48.637675999999999,3.500000000000000,2,Right and left,Beach-break,All surfers, ,0.000000000000000,0, , , , ,0.000000000000000,0.000000000000000,0.000000000000000,0.000000000000000,0.000000000000000,0.000000000000000
242, ,0.000000000000000,0.000000000000000,Santa Catarina South,Vermelha,-28.114457999999999,-48.635573000000001,3.500000000000000,2,Left,Beach-break,Experienced surfers, ,0.000000000000000,0, , , , ,0.000000000000000,0.000000000000000,0.000000000000000,0.000000000000000,0.000000000000000,0.000000000000000
243, ,0.000000000000000,0.000000000000000,Santa Catarina South,Ouvidor,-28.105449000000000,-48.635272999999998,2.000000000000000,2,Right and left,Beach-break,Beginners wave, ,0.000000000000000,0, , , , ,0.000000000000000,0.000000000000000,0.000000000000000,0.000000000000000,0.000000000000000,0.000000000000000
244, ,0.000000000000000,0.000000000000000,Santa Catarina South,Barrinha,-28.085384000000001,-48.630896000000000,3.500000000000000,3,Right and left,Beach-break, , ,0.000000000000000,0, , , , ,0.000000000000000,0.000000000000000,0.000000000000000,0.000000000000000,0.000000000000000,0.000000000000000
245, ,0.000000000000000,0.000000000000000,Santa Catarina South,Ferrugem,-28.077736000000002,-48.626604000000000,3.500000000000000,4,Right and left,Sand-bar,All surfers, ,0.000000000000000,0, , , , ,0.000000000000000,0.000000000000000,0.000000000000000,0.000000000000000,0.000000000000000,0.000000000000000
246, ,0.000000000000000,0.000000000000000,Santa Catarina South,Praia do Silveira,-28.039069000000001,-48.606862999999997,4.000000000000000,4,Right,Point-break,Pros or kamikaze only..., ,0.000000000000000,0, , , , ,0.000000000000000,0.000000000000000,0.000000000000000,0.000000000000000,0.000000000000000,0.000000000000000
247, ,0.000000000000000,0.000000000000000,Santa Catarina South,Garopaba Centro,-28.021577000000001,-48.619447999999998,3.000000000000000,2,Right and left,Beach-break,All surfers, ,0.000000000000000,0, , , , ,0.000000000000000,0.000000000000000,0.000000000000000,0.000000000000000,0.000000000000000,0.000000000000000
248, ,0.000000000000000,0.000000000000000,Santa Catarina South,Siriu,-27.976248999999999,-48.627999000000003,3.500000000000000,3,Right and left,Beach-break,All surfers, ,0.000000000000000,0, , , , ,0.000000000000000,0.000000000000000,0.000000000000000,0.000000000000000,0.000000000000000,0.000000000000000
249, ,0.000000000000000,0.000000000000000,Santa Catarina South,Gamboa,-27.958926999999999,-48.624662000000001,3.500000000000000,1,Right and left,Beach-break,All surfers, ,0.000000000000000,0, , , , ,0.000000000000000,0.000000000000000,0.000000000000000,0.000000000000000,0.000000000000000,0.000000000000000
250, ,0.000000000000000,0.000000000000000,Santa Catarina South,Guarda do embau,-27.905540999999999,-48.586779000000000,4.000000000000000,3,Left,Rivermouth,Experienced surfers, ,0.000000000000000,0, , , , ,0.000000000000000,0.000000000000000,2176.598024370000076,0.000000000000000,1402.785886760000039,0.000000000000000
251, ,0.000000000000000,0.000000000000000,Santa Catarina South,Costão da Pinheira,-27.881077000000001,-48.586542999999999,3.500000000000000,1,Right,Point-break,Experienced surfers, ,0.000000000000000,0, , , , ,0.000000000000000,0.000000000000000,31244.733720799998991,0.000000000000000,19736.418592499998340,0.000000000000000
252, ,0.000000000000000,0.000000000000000,Florianopolis,Naufragados,-27.834740000000000,-48.566747999999997,5.000000000000000,3,Right,Beach-break,Pros or kamikaze only..., ,0.000000000000000,0, , , , ,0.000000000000000,0.000000000000000,32242.764764799998375,0.000000000000000,20359.879011199998786,0.000000000000000
253, ,0.000000000000000,0.000000000000000,Santa Catarina South,Solidao - Caladinho,-27.793519000000000,-48.533456000000001,3.500000000000000,3,Right,Point-break,Experienced surfers, ,0.000000000000000,0, , , , ,0.000000000000000,0.000000000000000,6016.093927380000423,0.000000000000000,3877.144449230000191,0.000000000000000
254, ,0.000000000000000,0.000000000000000,Santa Catarina South,Praia dos Açores,-27.784758000000000,-48.525989000000003,3.000000000000000,3,Right and left,Beach-break,All surfers, ,0.000000000000000,0, , , , ,0.000000000000000,0.000000000000000,333.875936507999995,0.000000000000000,214.314512253000004,0.000000000000000
255, ,0.000000000000000,0.000000000000000,Florianopolis,Lagoinha do Leste,-27.773575999999998,-48.486528000000000,3.500000000000000,4,Right and left,Beach-break,All surfers, ,0.000000000000000,0, , , , ,0.000000000000000,0.000000000000000,120.461288452000005,0.000000000000000,77.932556152299995,0.000000000000000
256, ,0.000000000000000,0.000000000000000,Florianopolis,Matadeiro,-27.755140000000001,-48.498522999999999,3.500000000000000,4,Right and left,Beach-break,Experienced surfers, ,0.000000000000000,0, , , , ,0.000000000000000,0.000000000000000,4816.948383330000070,0.000000000000000,3156.268478389999927,0.000000000000000
257, ,0.000000000000000,0.000000000000000,Florianopolis,Armação,-27.741619000000000,-48.508114999999997,3.000000000000000,2,Right and left,Beach-break,All surfers, ,0.000000000000000,0, , , , ,0.000000000000000,0.000000000000000,61979.935371400002623,0.000000000000000,40096.298732800001744,0.000000000000000
258, ,0.000000000000000,0.000000000000000,Florianopolis,Caldeirao,-27.723690000000001,-48.504595999999999,3.500000000000000,3,Left,Beach-break,Experienced surfers, ,0.000000000000000,0, , , , ,0.000000000000000,0.000000000000000,232614.461907999997493,0.000000000000000,149123.939649999985704,0.000000000000000
259, ,0.000000000000000,0.000000000000000,Florianopolis,Morro das Pedras,-27.715522000000000,-48.502257000000000,3.000000000000000,4,Right and left,Sand-bar,Experienced surfers, ,0.000000000000000,0, , , , ,0.000000000000000,0.000000000000000,287626.808069000020623,0.000000000000000,184291.003866000013659,0.000000000000000
260, ,0.000000000000000,0.000000000000000,Florianopolis,Campeche Rights,-27.693864000000001,-48.482686999999999,4.000000000000000,2,Right,Sand-bar,Experienced surfers, ,0.000000000000000,0, , , , ,0.000000000000000,0.000000000000000,288316.240461000008509,0.000000000000000,184739.116041000001132,0.000000000000000
261, ,0.000000000000000,0.000000000000000,Florianopolis,Riozinho,-27.685523000000000,-48.479598000000003,5.000000000000000,3,Right and left,Beach-break,Experienced surfers, ,0.000000000000000,0, , , , ,0.000000000000000,0.000000000000000,288316.240461000008509,0.000000000000000,184739.116041000001132,0.000000000000000
262, ,0.000000000000000,0.000000000000000,Florianopolis,Joaquina,-27.629588999999999,-48.448768000000001,4.000000000000000,4,Left,Sand-bar,Experienced surfers, ,0.000000000000000,0, , , , ,0.000000000000000,0.000000000000000,196582.491069999989122,0.000000000000000,125062.262996999997995,0.000000000000000
263, ,0.000000000000000,0.000000000000000,Florianopolis,Praia Mole,-27.602475999999999,-48.432583999999999,3.500000000000000,3,Right and left,Sand-bar,All surfers, ,0.000000000000000,0, , , , ,0.000000000000000,0.000000000000000,44766.693315500000608,0.000000000000000,28133.651113500000065,0.000000000000000
264, ,0.000000000000000,0.000000000000000,Florianopolis,Galheta,-27.593482000000002,-48.425224000000000,3.500000000000000,4,Right and left,Beach-break,All surfers, ,0.000000000000000,0, , , , ,0.000000000000000,0.000000000000000,22261.022398000000976,0.000000000000000,14066.825593899999149,0.000000000000000
265, ,0.000000000000000,0.000000000000000,Florianopolis,Barra da Lagoa,-27.572818000000002,-48.424376000000002,3.000000000000000,3,Right and left,Beach-break,Beginners wave, ,0.000000000000000,0, , , , ,0.000000000000000,0.000000000000000,44715.009662600001320,0.000000000000000,28172.617374400000699,0.000000000000000
266, ,0.000000000000000,0.000000000000000,Florianopolis,Mocambique,-27.525323000000000,-48.410567999999998,3.500000000000000,4,Right and left,Beach-break,All surfers, ,0.000000000000000,0, , , , ,0.000000000000000,0.000000000000000,38954.239879599997948,0.000000000000000,25152.731662800000777,0.000000000000000
267, ,0.000000000000000,0.000000000000000,Santa Catarina South,Ponta das Aranhas,-27.482099999999999,-48.380892000000003,3.500000000000000,4,Right and left,Beach-break,All surfers, ,0.000000000000000,0, , , , ,0.000000000000000,0.000000000000000,5681.215061189999687,0.000000000000000,3604.380638120000185,0.000000000000000
268, ,0.000000000000000,0.000000000000000,Florianopolis,Santinho,-27.457940000000001,-48.372630999999998,3.500000000000000,4,Right and left,Beach-break,Experienced surfers, ,0.000000000000000,0, , , , ,0.000000000000000,0.000000000000000,0.000000000000000,0.000000000000000,0.000000000000000,0.000000000000000
269, ,0.000000000000000,0.000000000000000,Florianopolis,Canasvieiras,-27.430966000000002,-48.479661999999998,3.500000000000000,1,Right,Sand-bar,All surfers, ,0.000000000000000,0, , , , ,0.000000000000000,0.000000000000000,249381.071399999986170,0.000000000000000,159995.530849000002490,0.000000000000000
270, ,0.000000000000000,0.000000000000000,Florianopolis,Praia do Forte,-27.430747000000000,-48.519658999999997,3.500000000000000,1,Right,Point-break,All surfers, ,0.000000000000000,0, , , , ,0.000000000000000,0.000000000000000,247028.282563999993727,0.000000000000000,158475.846067000005860,0.000000000000000
271, ,0.000000000000000,0.000000000000000,Florianopolis,Ingleses,-27.429832999999999,-48.390569999999997,3.000000000000000,2,Right and left,Beach-break,All surfers, ,0.000000000000000,0, , , , ,0.000000000000000,0.000000000000000,3052.022512439999900,0.000000000000000,1987.280122760000040,0.000000000000000
272, ,0.000000000000000,0.000000000000000,Florianopolis,Praia Brava,-27.400804000000001,-48.413401000000000,3.500000000000000,3,Right and left,Beach-break,Experienced surfers, ,0.000000000000000,0, , , , ,0.000000000000000,0.000000000000000,6657.129371639999590,0.000000000000000,4305.773571009999614,0.000000000000000
273, ,0.000000000000000,0.000000000000000,Santa Catarina South,Praia Brava,-27.396440999999999,-48.414130000000000,3.000000000000000,4,Right and left,Sand-bar,All surfers, ,0.000000000000000,0, , , , ,0.000000000000000,0.000000000000000,4742.513250349999907,0.000000000000000,3078.335870739999791,0.000000000000000
274, ,0.000000000000000,0.000000000000000,Florianopolis,Lambe lambe,-27.387601000000000,-48.433185000000002,4.000000000000000,1,Right,Point-break,Experienced surfers, ,0.000000000000000,0, , , , ,0.000000000000000,0.000000000000000,7286.484306340000330,0.000000000000000,4714.919475560000137,0.000000000000000
275, ,0.000000000000000,0.000000000000000,Florianopolis,Ponta Do Rapa,-27.380837000000000,-48.420524999999998,4.000000000000000,1,Right,Reef-rocky,Pros or kamikaze only..., ,0.000000000000000,0, , , , ,0.000000000000000,0.000000000000000,181.393869400000000,0.000000000000000,116.898824692000005,0.000000000000000
276, ,0.000000000000000,0.000000000000000,Santa Catarina North,Tingua,-27.368165999999999,-48.532501000000003,3.500000000000000,1,Left,Beach-break,Experienced surfers, ,0.000000000000000,0, , , , ,0.000000000000000,0.000000000000000,0.000000000000000,0.000000000000000,0.000000000000000,0.000000000000000
277, ,0.000000000000000,0.000000000000000,Santa Catarina North,Palmas,-27.321984000000000,-48.535451999999999,3.500000000000000,2,Right and left,Beach-break,Experienced surfers, ,0.000000000000000,0, , , , ,0.000000000000000,0.000000000000000,0.000000000000000,0.000000000000000,0.000000000000000,0.000000000000000
278, ,0.000000000000000,0.000000000000000,Santa Catarina North,Mariscal,-27.166504000000000,-48.494833000000000,3.500000000000000,3,Right and left,Beach-break,All surfers, ,0.000000000000000,0, , , , ,0.000000000000000,0.000000000000000,0.000000000000000,0.000000000000000,0.000000000000000,0.000000000000000
279, ,0.000000000000000,0.000000000000000,Santa Catarina North,Quatro Ilhas,-27.156195000000000,-48.482923999999997,3.500000000000000,3,Right,Point-break,Experienced surfers, ,0.000000000000000,0, , , , ,0.000000000000000,0.000000000000000,0.000000000000000,0.000000000000000,0.000000000000000,0.000000000000000
280, ,0.000000000000000,0.000000000000000,Santa Catarina North,Bombinhas,-27.148367000000000,-48.489531999999997,2.000000000000000,2,Right and left,Beach-break,Beginners wave, ,0.000000000000000,0, , , , ,0.000000000000000,0.000000000000000,0.000000000000000,0.000000000000000,0.000000000000000,0.000000000000000
281, ,0.000000000000000,0.000000000000000,Santa Catarina North,Bombas,-27.140118000000001,-48.506784000000003,3.000000000000000,2,Right and left,Beach-break,All surfers, ,0.000000000000000,0, , , , ,0.000000000000000,0.000000000000000,3618.342962270000044,0.000000000000000,2474.358518600000025,0.000000000000000
282, ,0.000000000000000,0.000000000000000,Santa Catarina North,Meia Praia,-27.104825000000002,-48.609009000000000,3.000000000000000,3,Right and left,Sand-bar,All surfers, ,0.000000000000000,0, , , , ,0.000000000000000,0.000000000000000,11860.773950599999807,0.000000000000000,8202.401044849999380,0.000000000000000
283, ,0.000000000000000,0.000000000000000,Santa Catarina North,Itapema,-27.095541000000001,-48.609738000000000,3.000000000000000,3,Right and left,Beach-break,All surfers, ,0.000000000000000,0, , , , ,0.000000000000000,0.000000000000000,11860.773950599999807,0.000000000000000,8202.401044849999380,0.000000000000000
284, ,0.000000000000000,0.000000000000000,Santa Catarina North,Ponta do Cabeço,-27.093436000000001,-48.601959999999998,4.000000000000000,2,Left,Reef-rocky,Experienced surfers, ,0.000000000000000,0, , , , ,0.000000000000000,0.000000000000000,11860.773950599999807,0.000000000000000,8202.401044849999380,0.000000000000000
285, ,0.000000000000000,0.000000000000000,Santa Catarina North,Mocó,-27.080182000000001,-48.588451999999997,4.000000000000000,2,Left,Reef-rocky,Experienced surfers, ,0.000000000000000,0, , , , ,0.000000000000000,0.000000000000000,14705.594541500000560,0.000000000000000,10189.681112300000677,0.000000000000000
286, ,0.000000000000000,0.000000000000000,Santa Catarina North,Estaleirinho,-27.049112000000001,-48.586779000000000,3.000000000000000,4,Right and left,Beach-break,Pros or kamikaze only..., ,0.000000000000000,0, , , , ,0.000000000000000,0.000000000000000,2844.820590970000012,0.000000000000000,1987.280067440000039,0.000000000000000
287, ,0.000000000000000,0.000000000000000,Santa Catarina North,Estaleiro (reef),-27.025050000000000,-48.574064999999997,3.500000000000000,2,Left,Reef-rocky,Experienced surfers, ,0.000000000000000,0, , , , ,0.000000000000000,0.000000000000000,2844.820590970000012,0.000000000000000,1987.280067440000039,0.000000000000000
288, ,0.000000000000000,0.000000000000000,Santa Catarina North,Balneário Camboriú,-26.987711999999998,-48.629950999999998,3.000000000000000,3,Right and left,Beach-break,All surfers, ,0.000000000000000,0, , , , ,0.000000000000000,0.000000000000000,2844.820590970000012,0.000000000000000,1987.280067440000039,0.000000000000000
289, ,0.000000000000000,0.000000000000000,Santa Catarina North,Parcel,-26.976469000000002,-48.623170999999999,4.000000000000000,1,Right and left,Reef-rocky,Pros or kamikaze only..., ,0.000000000000000,0, , , , ,0.000000000000000,0.000000000000000,2844.820590970000012,0.000000000000000,1987.280067440000039,0.000000000000000
290, ,0.000000000000000,0.000000000000000,Santa Catarina North,Praia dos Amores,-26.957191000000002,-48.629221999999999,3.000000000000000,2,Right and left,Beach-break,Experienced surfers, ,0.000000000000000,0, , , , ,0.000000000000000,0.000000000000000,2844.820590970000012,0.000000000000000,1987.280067440000039,0.000000000000000
291, ,0.000000000000000,0.000000000000000,Santa Catarina North,Praia Brava,-26.941659999999999,-48.628234999999997,3.000000000000000,3,Right and left,Beach-break,Experienced surfers, ,0.000000000000000,0, , , , ,0.000000000000000,0.000000000000000,2844.820590970000012,0.000000000000000,1987.280067440000039,0.000000000000000
292, ,0.000000000000000,0.000000000000000,Santa Catarina North,Morcego,-26.931052000000001,-48.625214999999997,3.500000000000000,0,Left,Point-break,Pros or kamikaze only..., ,0.000000000000000,0, , , , ,0.000000000000000,0.000000000000000,2844.820590970000012,0.000000000000000,1987.280067440000039,0.000000000000000
293, ,0.000000000000000,0.000000000000000,Santa Catarina North,Atalaia,-26.915163000000000,-48.639361000000001,3.500000000000000,2,Left,breakwater/jetty,All surfers, ,0.000000000000000,0, , , , ,0.000000000000000,0.000000000000000,0.000000000000000,0.000000000000000,0.000000000000000,0.000000000000000
294, ,0.000000000000000,0.000000000000000,Santa Catarina North,Pracinha,-26.901883999999999,-48.641613999999997,3.500000000000000,4,Right and left,Beach-break,All surfers, ,0.000000000000000,0, , , , ,0.000000000000000,0.000000000000000,0.000000000000000,0.000000000000000,0.000000000000000,0.000000000000000
295, ,0.000000000000000,0.000000000000000,Santa Catarina North,Navegantes,-26.897577999999999,-48.638705999999999,3.500000000000000,3,Right and left,Beach-break,All surfers, ,0.000000000000000,0, , , , ,0.000000000000000,0.000000000000000,0.000000000000000,0.000000000000000,0.000000000000000,0.000000000000000
296, ,0.000000000000000,0.000000000000000,Santa Catarina North,Garrincha,-26.858702999999998,-48.634619000000001,3.000000000000000,2,Right and left,Sand-bar,Experienced surfers, ,0.000000000000000,0, , , , ,0.000000000000000,0.000000000000000,655.271619796999971,0.000000000000000,467.595296860000019,0.000000000000000
297, ,0.000000000000000,0.000000000000000,Santa Catarina North,Gravatá (1 e 2),-26.831883000000001,-48.621969000000000,3.000000000000000,3,Right and left,Beach-break,All surfers, ,0.000000000000000,0, , , , ,0.000000000000000,0.000000000000000,9407.232038500000272,0.000000000000000,6682.716131209999730,0.000000000000000
298, ,0.000000000000000,0.000000000000000,Santa Catarina North,Gravatá,-26.831730000000000,-48.623427999999997,3.000000000000000,3,Right and left,Beach-break,All surfers, ,0.000000000000000,0, , , , ,0.000000000000000,0.000000000000000,9407.232038500000272,0.000000000000000,6682.716131209999730,0.000000000000000
299, ,0.000000000000000,0.000000000000000,Santa Catarina North,Quilombo,-26.766992999999999,-48.639414000000002,3.500000000000000,2,Left,Beach-break,All surfers, ,0.000000000000000,0, , , , ,0.000000000000000,0.000000000000000,9434.791084290000072,0.000000000000000,6702.199268340000344,0.000000000000000
300, ,0.000000000000000,0.000000000000000,Santa Catarina North,Quilombo (reef),-26.765743000000001,-48.640143999999999,3.500000000000000,2,Right,Point-break,All surfers, ,0.000000000000000,0, , , , ,0.000000000000000,0.000000000000000,9434.791084290000072,0.000000000000000,6702.199268340000344,0.000000000000000
301, ,0.000000000000000,0.000000000000000,Santa Catarina North,molhe de Piçarras,-26.757026000000000,-48.673434999999998,3.000000000000000,1,Right,Point-break,All surfers, ,0.000000000000000,0, , , , ,0.000000000000000,0.000000000000000,9434.791084290000072,0.000000000000000,6702.199268340000344,0.000000000000000
302, ,0.000000000000000,0.000000000000000,Santa Catarina North,Laje do Jacques,-26.726915999999999,-48.673060000000000,4.000000000000000,2,Right and left,Reef-rocky,Experienced surfers, ,0.000000000000000,0, , , , ,0.000000000000000,0.000000000000000,9434.791084290000072,0.000000000000000,6702.199268340000344,0.000000000000000
303, ,0.000000000000000,0.000000000000000,Santa Catarina North,Syphodys,-26.701371000000002,-48.680247999999999,3.000000000000000,2,Right and left,Beach-break,Experienced surfers, ,0.000000000000000,0, , , , ,0.000000000000000,0.000000000000000,7965.033470149999630,0.000000000000000,5650.109855650000100,0.000000000000000
304, ,0.000000000000000,0.000000000000000,Santa Catarina North,ilha do grants,-26.696031999999999,-48.674990999999999,3.500000000000000,1,Left,Reef-rocky,Pros or kamikaze only..., ,0.000000000000000,0, , , , ,0.000000000000000,0.000000000000000,3937.879901889999928,27.559045791599999,2786.088634490000004,19.483137130700001
305, ,0.000000000000000,0.000000000000000,Santa Catarina North,barra de Itajuba,-26.691344999999998,-48.684164000000003,3.000000000000000,1,Right,Point-break,All surfers, ,0.000000000000000,0, , , , ,0.000000000000000,0.000000000000000,55.862274169899997,0.000000000000000,38.966274261499997,0.000000000000000
306, ,0.000000000000000,0.000000000000000,Santa Catarina North,Praia do Sol,-26.679962000000000,-48.688166000000002,2.000000000000000,3,Right and left,Point-break,All surfers, ,0.000000000000000,0, , , , ,0.000000000000000,0.000000000000000,55.862274169899997,0.000000000000000,38.966274261499997,0.000000000000000
307, ,0.000000000000000,0.000000000000000,Santa Catarina North,Praia do Tabuleiro,-26.643014000000001,-48.682051000000001,3.000000000000000,2,Right and left,Beach-break,Beginners wave, ,0.000000000000000,0, , , , ,0.000000000000000,0.000000000000000,8061.552869799999826,0.000000000000000,5513.728101730000162,0.000000000000000
308, ,0.000000000000000,0.000000000000000,Santa Catarina North,Canoas,-26.639403000000001,-48.682501000000002,2.000000000000000,3,Right and left,Beach-break,Beginners wave, ,0.000000000000000,0, , , , ,0.000000000000000,0.000000000000000,8061.552869799999826,0.000000000000000,5513.728101730000162,0.000000000000000
309, ,0.000000000000000,0.000000000000000,Santa Catarina North,Barrinha,-26.623905000000001,-48.679991000000001,3.500000000000000,3,Right and left,Beach-break,All surfers, ,0.000000000000000,0, , , , ,0.000000000000000,0.000000000000000,8061.552869799999826,28.303228378299998,5513.728101730000162,19.483137130700001
310, ,0.000000000000000,0.000000000000000,Santa Catarina North,Foz do Itapocu,-26.580708000000001,-48.663769000000002,3.000000000000000,3,Left,breakwater/jetty,All surfers, ,0.000000000000000,0, , , , ,0.000000000000000,0.000000000000000,8061.969884869999987,2980.098085399999945,5513.728101730000162,2006.763208390000045
311, ,0.000000000000000,0.000000000000000,Santa Catarina South,Foz do Itapocu,-26.566918999999999,-48.657525000000000,3.500000000000000,4,Right and left,Beach-break,All surfers, ,0.000000000000000,0, , , , ,0.000000000000000,0.000000000000000,8061.969884869999987,0.000000000000000,5513.728101730000162,0.000000000000000
312, ,0.000000000000000,0.000000000000000,Santa Catarina North,Praia do Bispo,-26.469248000000000,-48.607056000000000,3.000000000000000,4,Right and left,Beach-break,All surfers, ,0.000000000000000,0, , , , ,0.000000000000000,0.000000000000000,46342.046985599998152,0.000000000000000,31796.481990799999039,0.000000000000000
313, ,0.000000000000000,0.000000000000000,Santa Catarina North,Picama,-26.458086999999999,-48.596874000000000,3.000000000000000,3,Right and left,Sand-bar,Experienced surfers, ,0.000000000000000,0, , , , ,0.000000000000000,0.000000000000000,46398.687639199997648,902.159492493000016,31835.448270799999591,623.460441588999970
314, ,0.000000000000000,0.000000000000000,Santa Catarina North,"Praia Grande, São Francisco do Sul",-26.235880000000002,-48.502600000000001,3.000000000000000,3,Right and left,Beach-break,All surfers, ,0.000000000000000,0, , , , ,0.000000000000000,0.000000000000000,152803.273026000009850,0.000000000000000,102364.404018000001088,0.000000000000000
315, ,0.000000000000000,0.000000000000000,Santa Catarina South,Praia da Saudade,-26.230606000000002,-48.498888000000001,3.500000000000000,4,Right and left,Beach-break,All surfers, ,0.000000000000000,0, , , , ,0.000000000000000,0.000000000000000,144397.089787000004435,0.000000000000000,96811.709835100002238,0.000000000000000
316, ,0.000000000000000,0.000000000000000,Santa Catarina South,Sao Francisco do Sul,-26.219557999999999,-48.502107000000002,3.000000000000000,1,Right,Sand-bar,Beginners wave, ,0.000000000000000,0, , , , ,0.000000000000000,0.000000000000000,154107.773638000013307,0.000000000000000,103299.594645000004675,0.000000000000000
317, ,0.000000000000000,0.000000000000000,Santa Catarina South,Píer da Petrobras,-26.217386999999999,-48.500518999999997,3.500000000000000,2,Right,Point-break,All surfers, ,0.000000000000000,0, , , , ,0.000000000000000,0.000000000000000,150144.700228000001516,0.000000000000000,100649.887948999996297,0.000000000000000
318, ,0.000000000000000,0.000000000000000,Santa Catarina North,Sumidouro,-26.169526000000001,-48.552478999999998,3.500000000000000,1,Right and left,Beach-break,Experienced surfers, ,0.000000000000000,0, , , , ,0.000000000000000,0.000000000000000,214242.389569999999367,8687.155111309999484,143142.610585999995237,5864.424394609999581
319, ,0.000000000000000,0.000000000000000,Santa Catarina North,Praia do Forte,-26.163305999999999,-48.533220000000000,3.500000000000000,1,Right,Point-break,All surfers, ,0.000000000000000,0, , , , ,0.000000000000000,0.000000000000000,158378.877918000012869,618.674873351999963,106163.615875000003143,409.145874022999976
320, ,0.000000000000000,0.000000000000000,Santa Catarina North,Terceira Pedra,-26.067008999999999,-48.607646000000003,3.500000000000000,3,Right,Point-break,All surfers, ,0.000000000000000,0, , , , ,0.000000000000000,0.000000000000000,27551.147190100000444,0.000000000000000,18879.160121900000377,0.000000000000000
321, ,0.000000000000000,0.000000000000000,Santa Catarina North,Barra do sai mirim,-26.007832000000001,-48.604061000000002,3.000000000000000,3,Right and left,Beach-break,All surfers, ,0.000000000000000,0, , , , ,0.000000000000000,0.000000000000000,105945.418699000001652,13291.682151799999701,72711.068849599992973,9137.591407780000736
322, ,0.000000000000000,0.000000000000000,Parana,Barrinha,-25.976699000000000,-48.590727000000001,3.000000000000000,2,Right,Beach-break,Experienced surfers, ,0.000000000000000,0, , , , ,0.000000000000000,0.000000000000000,183502.098988000012469,2291.253444670000135,125763.651691000006394,1578.134185789999947
323, ,0.000000000000000,0.000000000000000,Parana,Guaratuba Praia Brava,-25.897758000000000,-48.564290999999997,3.000000000000000,3,Right and left,Beach-break,All surfers, ,0.000000000000000,0, , , , ,0.000000000000000,0.000000000000000,635010.843277000007220,0.000000000000000,442481.538307000009809,0.000000000000000
324, ,0.000000000000000,0.000000000000000,Parana,Praia Brava Guaratuba,-25.892817000000001,-48.561458999999999,3.500000000000000,3,Right and left,Beach-break,All surfers, ,0.000000000000000,0, , , , ,0.000000000000000,0.000000000000000,647596.252590000047348,0.000000000000000,451677.579642999975476,0.000000000000000
325, ,0.000000000000000,0.000000000000000,Parana,Direitas de Guaratuba,-25.890046000000002,-48.560288999999997,4.000000000000000,2,Right,Point-break,Experienced surfers, ,0.000000000000000,0, , , , ,0.000000000000000,0.000000000000000,657029.259914000052959,0.000000000000000,458516.161076000018511,0.000000000000000
326, ,0.000000000000000,0.000000000000000,Parana,Pico de Matinhos,-25.817817999999999,-48.529701000000003,3.500000000000000,3,Right,Point-break,Experienced surfers, ,0.000000000000000,0, , , , ,0.000000000000000,0.000000000000000,388242.067878999980167,0.000000000000000,273212.041203000000678,0.000000000000000
327, ,0.000000000000000,0.000000000000000,Parana,Ilha do Mel,-25.548327000000000,-48.295383000000001,3.500000000000000,3,Right and left,Beach-break,All surfers, ,0.000000000000000,0, , , , ,0.000000000000000,0.000000000000000,13058.159132000000682,0.000000000000000,8903.794130329999462,0.000000000000000
328, ,0.000000000000000,0.000000000000000,Parana,Farolete,-25.515314000000000,-48.286113999999998,3.500000000000000,4,Left,Point-break,Experienced surfers, ,0.000000000000000,0, , , , ,0.000000000000000,0.000000000000000,181184.825578999996651,0.000000000000000,126445.564687999998569,0.000000000000000
329, ,0.000000000000000,0.000000000000000,Sao Paolo South,"Guarau, Peruibe SP",-24.369537000000001,-47.011699999999998,3.000000000000000,4,Right and left,Beach-break,All surfers, ,0.000000000000000,0, , , , ,0.000000000000000,0.000000000000000,173370.159531000012066,4520.727375030000076,110956.466209000005620,2883.504173280000032
330, ,0.000000000000000,0.000000000000000,Sao Paolo South,Pier de Mongaguá,-24.095718000000002,-46.618552000000001,3.500000000000000,4,Right and left,Beach-break,All surfers, ,0.000000000000000,0, , , , ,0.000000000000000,0.000000000000000,0.000000000000000,0.000000000000000,0.000000000000000,0.000000000000000
331, ,0.000000000000000,0.000000000000000,Sao Paulo North,Pitangueiras,-24.036431000000000,-45.845947000000002,3.000000000000000,4,Right and left,Beach-break,All surfers, ,0.000000000000000,0, , , , ,0.000000000000000,0.000000000000000,0.000000000000000,0.000000000000000,0.000000000000000,0.000000000000000
332, ,0.000000000000000,0.000000000000000,Sao Paolo South,Tombo,-24.014990000000001,-46.272697000000001,3.500000000000000,4,Right and left,Beach-break,All surfers, ,0.000000000000000,0, , , , ,0.000000000000000,0.000000000000000,117211.918426999996882,0.000000000000000,72301.927326200006064,0.000000000000000
333, ,0.000000000000000,0.000000000000000,Sao Paulo North,Astúrias,-24.007738000000000,-46.266475000000000,3.000000000000000,2,Right and left,Beach-break,All surfers, ,0.000000000000000,0, , , , ,0.000000000000000,0.000000000000000,232442.773726000013994,0.000000000000000,143532.282412000000477,0.000000000000000
334, ,0.000000000000000,0.000000000000000,Sao Paolo South,Pitangueiras Beach,-24.000935999999999,-46.260767000000001,3.500000000000000,4,Right and left,Beach-break,Experienced surfers, ,0.000000000000000,0, , , , ,0.000000000000000,0.000000000000000,349460.432260999979917,0.000000000000000,217529.241181999997934,0.000000000000000
335, ,0.000000000000000,0.000000000000000,Sao Paulo North,porta do sol,-23.981331999999998,-46.373762999999997,3.500000000000000,2,Right and left,Point-break,Experienced surfers, ,0.000000000000000,0, , , , ,0.000000000000000,0.000000000000000,749159.019678000011481,0.000000000000000,514432.767553000012413,0.000000000000000
336, ,0.000000000000000,0.000000000000000,Sao Paolo South,Itarare,-23.972332999999999,-46.362003999999999,3.000000000000000,3,Right and left,Beach-break,All surfers, ,0.000000000000000,0, , , , ,0.000000000000000,0.000000000000000,837499.561131000053138,0.000000000000000,568440.025997000047937,0.000000000000000
337, ,0.000000000000000,0.000000000000000,Sao Paolo South,Santos,-23.971744000000001,-46.347208999999999,3.000000000000000,3,Right and left,Beach-break,All surfers, ,0.000000000000000,0, , , , ,0.000000000000000,0.000000000000000,709124.342636000015773,0.000000000000000,471920.563000000023749,0.000000000000000
338, ,0.000000000000000,0.000000000000000,Sao Paolo South,"Praia de Pernambuco (Pernambuco Beach, in Guaruja)",-23.963431000000000,-46.184033999999997,3.500000000000000,4,Right and left,Beach-break,All surfers, ,0.000000000000000,0, , , , ,0.000000000000000,0.000000000000000,606549.426407000049949,0.000000000000000,375381.630546999978833,0.000000000000000
339, ,0.000000000000000,0.000000000000000,Sao Paulo North,Bonete,-23.917383000000001,-45.347785999999999,3.500000000000000,4,Right and left,Beach-break,Experienced surfers, ,0.000000000000000,0, , , , ,0.000000000000000,0.000000000000000,0.000000000000000,0.000000000000000,0.000000000000000,0.000000000000000
340, ,0.000000000000000,0.000000000000000,Sao Paulo North,Sao Pedro,-23.908522000000001,-46.166581000000001,4.000000000000000,3,Right and left,Sand-bar,All surfers, ,0.000000000000000,0, , , , ,0.000000000000000,0.000000000000000,789007.996139999944717,0.000000000000000,490819.222527000005357,0.000000000000000
341, ,0.000000000000000,0.000000000000000,Sao Paolo South,Praia de Iporanga,-23.902191999999999,-46.152724999999997,3.500000000000000,2,Left,Reef-rocky,Pros or kamikaze only..., ,0.000000000000000,0, , , , ,0.000000000000000,0.000000000000000,641690.067828999948688,0.000000000000000,401352.647919000010006,0.000000000000000
342, ,0.000000000000000,0.000000000000000,Sao Paolo South,Taguaíba,-23.896726000000001,-46.151353999999998,3.500000000000000,4,Right and left,Beach-break,All surfers, ,0.000000000000000,0, , , , ,0.000000000000000,0.000000000000000,640735.105482000042684,0.000000000000000,402287.836823999998160,0.000000000000000
343, ,0.000000000000000,0.000000000000000,Sao Paolo South,praia branca,-23.863427999999999,-46.130795999999997,3.500000000000000,3,Left,Beach-break,All surfers, ,0.000000000000000,0, , , , ,0.000000000000000,0.000000000000000,476772.271869999996852,0.000000000000000,301871.740954999986570,0.000000000000000
344, ,0.000000000000000,0.000000000000000,Sao Paulo North,Castelhanos,-23.857582000000001,-45.288905999999997,3.500000000000000,3,Right and left,Beach-break,Experienced surfers, ,0.000000000000000,0, , , , ,0.000000000000000,0.000000000000000,0.000000000000000,0.000000000000000,0.000000000000000,0.000000000000000
345, ,0.000000000000000,0.000000000000000,Sao Paulo North,Enseada - Bertioga,-23.839860000000002,-46.123674000000001,3.000000000000000,4,Right and left,Beach-break,All surfers, ,0.000000000000000,0, , , , ,0.000000000000000,0.000000000000000,373262.900706999993417,0.000000000000000,238200.843800000002375,0.000000000000000
346, ,0.000000000000000,0.000000000000000,Sao Paulo North,Santiago,-23.819897999999998,-45.541420000000002,3.500000000000000,2,Right and left,Beach-break,Experienced surfers, ,0.000000000000000,0, , , , ,0.000000000000000,0.000000000000000,0.000000000000000,0.000000000000000,0.000000000000000,0.000000000000000
